{
	"date":"mars 2015",
	"source":" METTL - <a href='http://www.territoires.gouv.fr/les-ecoquartiers'>label EcoQuartier</a>",
	"liste":[
    {
        "id": "$14026ecoA",
        "projet": "éco-quartier centre bourg Audrieu",
        "commune": "Audrieu",
        "long": "-0.594525",
        "lat": "49.208408",
        "aap": "clab",
        "commentaire": "ajourné 2014",
        "Internet": "",
        "Intranet": "",
        "phase": "inconnu"
    },
    {
        "id": "$14060ecoA",
        "projet": "Le Fond du Pré",
        "commune": "Benouville",
        "long": "-0.278251",
        "lat": "49.243195",
        "aap": "caap",
        "commentaire": "",
        "Internet": "",
        "Intranet": "",
        "phase": "inconnu"
    },
    {
        "id": "$14118ecoA",
        "projet": "Presqu&apos;ile",
        "commune": "Caen",
        "long": "-0.370679",
        "lat": "49.182863",
        "aap": "caap",
        "commentaire": "",
        "Internet": "",
        "Intranet": "",
        "phase": "inconnu"
    },
    {
        "id": "$14167ecoA",
        "projet": "Quartier LIBERA",
        "commune": "Colombelles",
        "long": "-0.297232",
        "lat": "49.2039",
        "aap": "caap",
        "commentaire": "",
        "Internet": "",
        "Intranet": "",
        "phase": "inconnu"
    },
    {
        "id": "$14738ecoA",
        "projet": "Ecoquartier Verson",
        "commune": "Verson",
        "long": "-0.451351",
        "lat": "49.155543",
        "aap": "caap",
        "commentaire": "",
        "Internet": "",
        "Intranet": "",
        "phase": "inconnu"
    },
    {
        "id": "$27008ecoA",
        "projet": "Ecoquartier La Croix",
        "commune": "Alizay",
        "long": "1.169947",
        "lat": "49.318664",
        "aap": "autres",
        "commentaire": "tranche 1 terminée",
        "Internet": "<li><a href=&apos;http://www.haute-normandie.developpement-durable.gouv.fr/ecoquartier-la-croix-alizay-a866.html&apos;>internet</a></li>",
        "Intranet": "<li><a href=&apos;http://intra.dreal-haute-normandie.i2/spip.php?page=article&id_article=1757&apos;>intranet</a></li>",
        "phase": "chantier"
    },
    {
        "id": "$27229ecoA",
        "projet": "Cité Lafayette",
        "commune": "Evreux",
        "long": "1.1275",
        "lat": "49.0378",
        "aap": "caap",
        "commentaire": "plus un écoquartier",
        "Internet": "<li><a href=&apos;http://www.haute-normandie.developpement-durable.gouv.fr/cite-lafayette-evreux-a864.html&apos;>internet</a></li>",
        "Intranet": "<li><a href=&apos;http://intra.dreal-haute-normandie.i2/spip.php?page=article&id_article=1330&apos;>intranet</a></li>",
        "phase": "projet"
    },
    {
        "id": "$27229ecoB",
        "projet": "Ecoquartier Panette",
        "commune": "Evreux",
        "long": "1.14323",
        "lat": "49.01918",
        "aap": "clab",
        "commentaire": "ajourné 2014",
        "Internet": "",
        "Intranet": "",
        "phase": "projet"
    },
    {
        "id": "$27279ecoA",
        "projet": "Les Sablons",
        "commune": "Gasny",
        "long": "1.6073",
        "lat": "49.0889",
        "aap": "caap",
        "commentaire": "",
        "Internet": "<li><a href=&apos;http://www.haute-normandie.developpement-durable.gouv.fr/les-sablons-gasny-a862.html&apos;>internet</a></li>",
        "Intranet": "<li><a href=&apos;http://intra.dreal-haute-normandie.i2/spip.php?page=article&id_article=1332&apos;>intranet</a></li>",
        "phase": "projet"
    },
    {
        "id": "$27284ecoA",
        "projet": "Le Quartier de la Gare",
        "commune": "Gisors",
        "long": "1.78784",
        "lat": "49.28789",
        "aap": "autres",
        "commentaire": "plus un écoquartier",
        "Internet": "<li><a href=&apos;http://www.haute-normandie.developpement-durable.gouv.fr/ecoquartier-de-la-gare-gisors-a872.html&apos;>internet</a></li>",
        "Intranet": "<li><a href=&apos;http://intra.dreal-haute-normandie.i2/spip.php?page=article&id_article=1932&apos;>intranet</a></li>",
        "phase": "intention"
    },
    {
        "id": "$27301ecoA",
        "projet": "écoquartier",
        "commune": "Grossoeuvre",
        "long": "1.199733",
        "lat": "48.936018",
        "aap": "caap",
        "commentaire": "",
        "Internet": "",
        "Intranet": "",
        "phase": "inconnu"
    },
    {
        "id": "$27375ecoA",
        "projet": "Vers un `quartier durable`, route de la Vacherie.",
        "commune": "Louviers",
        "long": "1.14607",
        "lat": "49.20747",
        "aap": "autres",
        "commentaire": "plus un écoquartier",
        "Internet": "<li><a href=&apos;http://www.haute-normandie.developpement-durable.gouv.fr/lotissement-durable-bioclimatique-a871.html&apos;>internet</a></li>",
        "Intranet": "<li><a href=&apos;http://intra.dreal-haute-normandie.i2/spip.php?page=article&id_article=1758&apos;>intranet</a></li>",
        "phase": "projet"
    },
    {
        "id": "$27375ecoB",
        "projet": "Ecoquartier de la Gare",
        "commune": "Louviers",
        "long": "1.17805",
        "lat": "49.21645",
        "aap": "autres",
        "commentaire": "",
        "Internet": "",
        "Intranet": "<li><a href=&apos;http://intra.dreal-haute-normandie.i2/spip.php?page=article&id_article=871&apos;>intranet</a></li>",
        "phase": "intention"
    },
    {
        "id": "$27414ecoA",
        "projet": "réhabilitation `ancienne gendarmerie`",
        "commune": "Montreuil l&apos;Argillé",
        "long": "0.4808",
        "lat": "48.93839",
        "aap": "caap",
        "commentaire": "abandonné",
        "Internet": "<li><a href=&apos;http://www.haute-normandie.developpement-durable.gouv.fr/quartier-de-la-gendarmerie-a852.html&apos;>internet</a></li>",
        "Intranet": "<li><a href=&apos;http://intra.dreal-haute-normandie.i2/spip.php?page=article&id_article=1659&apos;>intranet</a></li>",
        "phase": "projet"
    },
    {
        "id": "$27467ecoA",
        "projet": "La Cartonnerie",
        "commune": "Pont-Audemer",
        "long": "0.5061",
        "lat": "49.3608",
        "aap": "caap",
        "commentaire": "suspendu",
        "Internet": "<li><a href=&apos;http://www.haute-normandie.developpement-durable.gouv.fr/la-cartonnerie-pont-audemer-a853.html&apos;>internet</a></li>",
        "Intranet": "<li><a href=&apos;http://intra.dreal-haute-normandie.i2/spip.php?page=article&id_article=1654&apos;>intranet</a></li>",
        "phase": "intention"
    },
    {
        "id": "$27679ecoA",
        "projet": "le parc `Reine Mathilde`",
        "commune": "Verneuil sur Avre",
        "long": "0.93977",
        "lat": "48.74154",
        "aap": "caap",
        "commentaire": "Bien que candidat à l&apos;appel à projet écoquartier, il s&apos;agit en fait d&apos;un projet d&apos;aménagement de parc urbain.",
        "Internet": "<li><a href=&apos;http://www.haute-normandie.developpement-durable.gouv.fr/parc-mathilde-verneuil-sur-avre-a858.html&apos;>internet</a></li>",
        "Intranet": "<li><a href=&apos;http://intra.dreal-haute-normandie.i2/spip.php?page=article&id_article=1660&apos;>intranet</a></li>",
        "phase": "réalisé"
    },
    {
        "id": "$27681ecoA",
        "projet": "Zac Fieschi",
        "commune": "Vernon",
        "long": "1.47283",
        "lat": "49.09765",
        "aap": "elab",
        "commentaire": "engagé 2014",
        "Internet": "<li><a href=&apos;http://www.cape27.fr/Amenagement-et-habitat/Le-futur-quartier-Fieschi&apos;>internet</a></li>",
        "Intranet": "",
        "phase": "chantier"
    },
    {
        "id": "$27701ecoA",
        "projet": "Eco village des Noés",
        "commune": "Val de Reuil ",
        "long": "1.22208",
        "lat": "49.2684",
        "aap": "elab",
        "commentaire": "engagé 2014",
        "Internet": "<li><a href=&apos;http://www.haute-normandie.developpement-durable.gouv.fr/eco-village-des-noes-val-de-reuil-a857.html&apos;>internet</a></li>",
        "Intranet": "<li><a href=&apos;http://intra.dreal-haute-normandie.i2/spip.php?page=article&id_article=1640&apos;>intranet</a></li>",
        "phase": "chantier"
    },
    {
        "id": "$50129ecoA",
        "projet": "GRIMESNIL MONTURBERT",
        "commune": "Cherbourg Octeville",
        "long": "-1.643126",
        "lat": "49.625504",
        "aap": "caap",
        "commentaire": "",
        "Internet": "",
        "Intranet": "",
        "phase": "inconnu"
    },
    {
        "id": "$50218ecoA",
        "projet": "Eco quartier de la Clémentière",
        "commune": "Granville",
        "long": "-1.597302",
        "lat": "48.837579",
        "aap": "clab",
        "commentaire": "ajourné 2013",
        "Internet": "",
        "Intranet": "",
        "phase": "inconnu"
    },
    {
        "id": "$50239ecoA",
        "projet": "Eco Hameau les Chemins Verts ",
        "commune": "Hebecrevon",
        "long": "-1.166474",
        "lat": "49.126563",
        "aap": "caap",
        "commentaire": "",
        "Internet": "",
        "Intranet": "<li><a href=&apos;&apos;>intranet</a></li>",
        "phase": "inconnu"
    },
    {
        "id": "$50475ecoA",
        "projet": "Saint-Georges-Montcocq",
        "commune": "Saint-Georges-Montcocq",
        "long": "-1.095232",
        "lat": "49.128547",
        "aap": "caap",
        "commentaire": "",
        "Internet": "",
        "Intranet": "<li><a href=&apos;&apos;>intranet</a></li>",
        "phase": "inconnu"
    },
    {
        "id": "$50625ecoA",
        "projet": "Eco-quartier Communal",
        "commune": "Vengeons",
        "long": "-0.915961",
        "lat": "48.755785",
        "aap": "caap",
        "commentaire": "",
        "Internet": "",
        "Intranet": "",
        "phase": "inconnu"
    },
    {
        "id": "$61093ecoA",
        "projet": "EcoHameau «Le Brulai»",
        "commune": "Chanu",
        "long": "-0.678462",
        "lat": "48.729922",
        "aap": "caap",
        "commentaire": "",
        "Internet": "",
        "Intranet": "",
        "phase": "inconnu"
    },
    {
        "id": "$61205ecoA",
        "projet": "Eco-hameau",
        "commune": "Heugon",
        "long": "0.398551",
        "lat": "48.85587",
        "aap": "caap",
        "commentaire": "",
        "Internet": "",
        "Intranet": "",
        "phase": "inconnu"
    },
    {
        "id": "$76108ecoA",
        "projet": "Zac des Portes de la Forêt ",
        "commune": "Bois-Guillaume",
        "long": "1.11635",
        "lat": "49.48101",
        "aap": "autres",
        "commentaire": "",
        "Internet": "<li><a href=&apos;http://www.haute-normandie.developpement-durable.gouv.fr/zac-des-portes-de-la-foret-bois-a859.html&apos;>internet</a></li>",
        "Intranet": "<li><a href=&apos;http://intra.dreal-haute-normandie.i2/spip.php?page=article&id_article=1326&apos;>intranet</a></li>",
        "phase": "réalisé"
    },
    {
        "id": "$76165ecoA",
        "projet": "écoquartier Uggate",
        "commune": "Caudebec lès Elbeuf",
        "long": "1.02927",
        "lat": "49.27365",
        "aap": "caap",
        "commentaire": "suspendu",
        "Internet": "<li><a href=&apos;http://www.haute-normandie.developpement-durable.gouv.fr/uggate-caudebec-les-elbeuf-a848.html&apos;>internet</a></li>",
        "Intranet": "<li><a href=&apos;http://intra.dreal-haute-normandie.i2/spip.php?page=article&id_article=1656&apos;>intranet</a></li>",
        "phase": "projet"
    },
    {
        "id": "$76217ecoA",
        "projet": "Le Val d&apos;Arquet",
        "commune": "Dieppe",
        "long": "1.107",
        "lat": "49.9295",
        "aap": "autres",
        "commentaire": "",
        "Internet": "<li><a href=&apos;http://www.haute-normandie.developpement-durable.gouv.fr/ecoquartier-du-val-d-arquet-dieppe-a865.html&apos;>internet</a></li>",
        "Intranet": "<li><a href=&apos;http://intra.dreal-haute-normandie.i2/spip.php?page=article&id_article=1759&apos;>intranet</a></li>",
        "phase": "chantier"
    },
    {
        "id": "$76319ecoA",
        "projet": "écoquartier des essarts",
        "commune": "Grand-Couronne",
        "long": "1.02",
        "lat": "49.34",
        "aap": "autres",
        "commentaire": "",
        "Internet": "",
        "Intranet": "",
        "phase": "intention"
    },
    {
        "id": "$76322ecoA",
        "projet": "Quartier Matisse",
        "commune": "Grand-Quevilly",
        "long": "1.03978",
        "lat": "49.40334",
        "aap": "autres",
        "commentaire": "",
        "Internet": "<li><a href=&apos;http://www.haute-normandie.developpement-durable.gouv.fr/quartier-matisse-grand-quevilly-a867.html&apos;>internet</a></li>",
        "Intranet": "<li><a href=&apos;http://intra.dreal-haute-normandie.i2/spip.php?page=article&id_article=1327&apos;>intranet</a></li>",
        "phase": "chantier"
    },
    {
        "id": "$76341ecoA",
        "projet": "Ecoquartier des coteaux",
        "commune": "Harfleur",
        "long": "0.207539",
        "lat": "49.505979",
        "aap": "autres",
        "commentaire": "",
        "Internet": "<li><a href=&apos;http://www.gotham-sas.com/actualites/index.php/nos-realisations/logement/58-logement-harfleur&apos;>internet</a></li>",
        "Intranet": "",
        "phase": "chantier"
    },
    {
        "id": "$76351ecoA",
        "projet": "Le Grand Hameau",
        "commune": "Le Havre",
        "long": "0.08706",
        "lat": "49.52898",
        "aap": "elab",
        "commentaire": "engagé 2014",
        "Internet": "<li><a href=&apos;http://www.haute-normandie.developpement-durable.gouv.fr/le-grand-hameau-le-havre-a849.html&apos;>internet</a></li>",
        "Intranet": "<li><a href=&apos;http://intra.dreal-haute-normandie.i2/spip.php?page=article&id_article=1658&apos;>intranet</a></li>",
        "phase": "chantier"
    },
    {
        "id": "$76401ecoA",
        "projet": "quartier de l&apos;église",
        "commune": "La Mailleraye sur Seine",
        "long": "0.7695",
        "lat": "49.4765",
        "aap": "elab",
        "commentaire": "engagé 2014",
        "Internet": "<li><a href=&apos;http://www.haute-normandie.developpement-durable.gouv.fr/quartier-de-l-eglise-la-mailleraye-a850.html&apos;>internet</a></li>",
        "Intranet": "<li><a href=&apos;http://intra.dreal-haute-normandie.i2/spip.php?page=article&id_article=1661&apos;>intranet</a></li>",
        "phase": "projet"
    },
    {
        "id": "$76447ecoA",
        "projet": "Les jardins de la ville",
        "commune": "Montivilliers ",
        "long": "0.16232",
        "lat": "49.54837",
        "aap": "caap",
        "commentaire": "",
        "Internet": "<li><a href=&apos;http://www.haute-normandie.developpement-durable.gouv.fr/les-jardins-de-la-ville-a851.html&apos;>internet</a></li>",
        "Intranet": "<li><a href=&apos;http://intra.dreal-haute-normandie.i2/spip.php?page=article&id_article=1655&apos;>intranet</a></li>",
        "phase": "projet"
    },
    {
        "id": "$76448ecoA",
        "projet": "Montmain",
        "commune": "Montmain",
        "long": "1.2383",
        "lat": "49.4098",
        "aap": "autres",
        "commentaire": "",
        "Internet": "",
        "Intranet": "",
        "phase": "intention"
    },
    {
        "id": "$76451ecoA",
        "projet": "Quartier des Oiseaux",
        "commune": "Mont-Saint-Aignan",
        "long": "1.07079",
        "lat": "49.46868",
        "aap": "autres",
        "commentaire": "projet repensé",
        "Internet": "<li><a href=&apos;http://www.haute-normandie.developpement-durable.gouv.fr/quartier-des-oiseaux-mont-saint-a868.html&apos;>internet</a></li>",
        "Intranet": "<li><a href=&apos;http://intra.dreal-haute-normandie.i2/spip.php?page=article&id_article=1333&apos;>intranet</a></li>",
        "phase": "réalisé"
    },
    {
        "id": "$76482ecoA",
        "projet": "écoquartier",
        "commune": "Offranville",
        "long": "1.0494969",
        "lat": "49.87014",
        "aap": "caap",
        "commentaire": "",
        "Internet": "",
        "Intranet": "",
        "phase": "inconnu"
    },
    {
        "id": "$76536ecoA",
        "projet": "Ecoquartier des Arondes",
        "commune": "Roncherolles sur le Vivier",
        "long": "1.18108",
        "lat": "49.46551",
        "aap": "elab",
        "commentaire": "engagé 2014",
        "Internet": "<li><a href=&apos;http://www.haute-normandie.developpement-durable.gouv.fr/la-ferme-debruyne-roncherolles-sur-a863.html&apos;>internet</a></li>",
        "Intranet": "<li><a href=&apos;http://intra.dreal-haute-normandie.i2/spip.php?page=article&id_article=1328&apos;>intranet</a></li>",
        "phase": "chantier"
    },
    {
        "id": "$76540ecoA",
        "projet": "Ecoquartier Flaubert",
        "commune": "Rouen",
        "long": "1.0736",
        "lat": "49.4384",
        "aap": "caap",
        "commentaire": "",
        "Internet": "<li><a href=&apos;http://www.haute-normandie.developpement-durable.gouv.fr/eco-quartier-flaubert-rouen-a854.html&apos;>internet</a></li>",
        "Intranet": "<li><a href=&apos;http://intra.dreal-haute-normandie.i2/spip.php?page=article&id_article=1653&apos;>intranet</a></li>",
        "phase": "projet"
    },
    {
        "id": "$76540ecoB",
        "projet": "Luciline Rives de Seine",
        "commune": "Rouen",
        "long": "1.06699",
        "lat": "49.44571",
        "aap": "elab",
        "commentaire": "engagé 2014",
        "Internet": "<li><a href=&apos;http://www.haute-normandie.developpement-durable.gouv.fr/eco-quartier-luciline-rouen-a855.html&apos;>internet</a></li>",
        "Intranet": "<li><a href=&apos;http://intra.dreal-haute-normandie.i2/spip.php?page=article&id_article=1652&apos;>intranet</a></li>",
        "phase": "chantier"
    },
    {
        "id": "$76540ecoC",
        "projet": "Ecoquartier des Deux Rivières",
        "commune": "Rouen",
        "long": "1.1373",
        "lat": "49.43557",
        "aap": "autres",
        "commentaire": "suspendu",
        "Internet": "<li><a href=&apos;http://www.haute-normandie.developpement-durable.gouv.fr/ecoquartier-des-deux-rivieres-a870.html&apos;>internet</a></li>",
        "Intranet": "<li><a href=&apos;http://intra.dreal-haute-normandie.i2/spip.php?page=article&id_article=1765&apos;>intranet</a></li>",
        "phase": "intention"
    },
    {
        "id": "$76551ecoA",
        "projet": "Eco Hameau des Charmilles",
        "commune": "Sainneville sur Seine ",
        "long": "0.2913",
        "lat": "49.55373",
        "aap": "autres",
        "commentaire": "terminé",
        "Internet": "<li><a href=&apos;http://www.haute-normandie.developpement-durable.gouv.fr/eco-hameau-des-charmilles-a869.html&apos;>internet</a></li>",
        "Intranet": "<li><a href=&apos;http://intra.dreal-haute-normandie.i2/spip.php?page=article&id_article=1761&apos;>intranet</a></li>",
        "phase": "réalisé"
    },
    {
        "id": "$76728ecoA",
        "projet": "Le Vert Galant",
        "commune": "La Vaupalière",
        "long": "0.9949",
        "lat": "49.49187",
        "aap": "autres",
        "commentaire": "",
        "Internet": "<li><a href=&apos;http://www.sm-promotion.fr/Nos-offres/La-Vaupaliere&apos;>internet</a></li>",
        "Intranet": "",
        "phase": "intention"
    },
    {
        "id": "$76758ecoA",
        "projet": "Zac de la Plaine",
        "commune": "Yvetot",
        "long": "0.7587",
        "lat": "49.6195",
        "aap": "autres",
        "commentaire": "",
        "Internet": "",
        "Intranet": "",
        "phase": "intention"
    },
    {
        "id": "$67130ecoA",
        "projet": "Quartier Avenir",
        "commune": "Erstein",
        "long": "7.66326",
        "lat": "48.42353",
        "aap": "caap",
        "commentaire": "",
        "Internet": "",
        "Intranet": "",
        "phase": "inconnu"
    },
    {
        "id": "$67180ecoA",
        "projet": "Quartier Thurot",
        "commune": "Haguenau",
        "long": "7.79125",
        "lat": "48.813288",
        "aap": "clab",
        "commentaire": "",
        "Internet": "",
        "Intranet": "",
        "phase": "inconnu"
    },
    {
        "id": "$67267ecoA",
        "projet": "Ecoquartier Tanneries",
        "commune": "Lingolsheim",
        "long": "7.681749",
        "lat": "48.554457",
        "aap": "caap",
        "commentaire": "",
        "Internet": "",
        "Intranet": "",
        "phase": "inconnu"
    },
    {
        "id": "$67273ecoA",
        "projet": "Lotissement les Châtaigniers",
        "commune": "Lohr",
        "long": "7.243551",
        "lat": "48.8582899",
        "aap": "caap",
        "commentaire": "",
        "Internet": "",
        "Intranet": "",
        "phase": "inconnu"
    },
    {
        "id": "$67345ecoA",
        "projet": "écoquartier à Oberhoffen-sur-Moder",
        "commune": "Oberhoffen-sur-Moder",
        "long": "7.86352",
        "lat": "48.782918",
        "aap": "autres",
        "commentaire": "",
        "Internet": "",
        "Intranet": "",
        "phase": "inconnu"
    },
    {
        "id": "$67365ecoA",
        "projet": "Rives du Bohrie",
        "commune": "Ostwald",
        "long": "7.71023",
        "lat": "48.5434709",
        "aap": "caap",
        "commentaire": "",
        "Internet": "",
        "Intranet": "",
        "phase": "inconnu"
    },
    {
        "id": "$67447ecoA",
        "projet": "Eco Quartier Adelshoffen",
        "commune": "Schiltigheim",
        "long": "7.748453",
        "lat": "48.605226",
        "aap": "caap",
        "commentaire": "",
        "Internet": "",
        "Intranet": "",
        "phase": "inconnu"
    },
    {
        "id": "$67482ecoA",
        "projet": "Quartier durable &apos;Danube&apos;",
        "commune": "Strasbourg",
        "long": "7.7521113",
        "lat": "48.5734053",
        "aap": "elab",
        "commentaire": "",
        "Internet": "",
        "Intranet": "",
        "phase": "inconnu"
    },
    {
        "id": "$67506ecoA",
        "projet": "Les portes du Kochersberg",
        "commune": "Vendenheim",
        "long": "7.706899",
        "lat": "48.671",
        "aap": "clab",
        "commentaire": "",
        "Internet": "",
        "Intranet": "",
        "phase": "inconnu"
    },
    {
        "id": "$67517ecoA",
        "projet": "Mairie de Wangen",
        "commune": "Wangen",
        "long": "7.465709",
        "lat": "48.617905",
        "aap": "caap",
        "commentaire": "",
        "Internet": "",
        "Intranet": "",
        "phase": "inconnu"
    },
    {
        "id": "$68066ecoA",
        "projet": "Amsterdam",
        "commune": "Colmar",
        "long": "7.358512",
        "lat": "48.0793589",
        "aap": "autres",
        "commentaire": "",
        "Internet": "",
        "Intranet": "",
        "phase": "inconnu"
    },
    {
        "id": "$68082ecoA",
        "projet": "Gerteis",
        "commune": "Ensisheim",
        "long": "7.351814",
        "lat": "47.86593",
        "aap": "caap",
        "commentaire": "",
        "Internet": "",
        "Intranet": "",
        "phase": "inconnu"
    },
    {
        "id": "$68162ecoA",
        "projet": "Création de quartiers innovants à Kaysersberg",
        "commune": "Kaysersberg",
        "long": "7.264023",
        "lat": "48.13889",
        "aap": "caap",
        "commentaire": "",
        "Internet": "",
        "Intranet": "",
        "phase": "inconnu"
    },
    {
        "id": "$68166ecoA",
        "projet": "Ameco",
        "commune": "Kingersheim",
        "long": "7.334499",
        "lat": "47.789641",
        "aap": "caap",
        "commentaire": "",
        "Internet": "",
        "Intranet": "",
        "phase": "inconnu"
    },
    {
        "id": "$68224ecoA",
        "projet": "Lefebvre",
        "commune": "Mulhouse",
        "long": "7.335888",
        "lat": "47.750839",
        "aap": "label",
        "commentaire": "Label 2014",
        "Internet": "",
        "Intranet": "",
        "phase": "inconnu"
    },
    {
        "id": "$68224ecoB",
        "projet": "Wolf-Wagner",
        "commune": "Mulhouse",
        "long": "7.335888",
        "lat": "47.750839",
        "aap": "label",
        "commentaire": "Label 2013",
        "Internet": "",
        "Intranet": "",
        "phase": "inconnu"
    },
    {
        "id": "$68294ecoA",
        "projet": "Les Coccinelles",
        "commune": "Sainte Croix aux Mines",
        "long": "7.2261398",
        "lat": "48.2624604",
        "aap": "label",
        "commentaire": "Label 2014",
        "Internet": "",
        "Intranet": "",
        "phase": "inconnu"
    },
    {
        "id": "$68297ecoA",
        "projet": "ZAC Ville de Paris",
        "commune": "Saint Louis",
        "long": "7.563934",
        "lat": "47.5859949",
        "aap": "clab",
        "commentaire": "",
        "Internet": "",
        "Intranet": "",
        "phase": "inconnu"
    },
    {
        "id": "$68309ecoA",
        "projet": "Quartier des Tisserands",
        "commune": "Sierentz",
        "long": "7.455722",
        "lat": "47.654959",
        "aap": "caap",
        "commentaire": "",
        "Internet": "",
        "Intranet": "",
        "phase": "inconnu"
    },
    {
        "id": "$68321ecoA",
        "projet": "EcoQuartier Staffelfelden",
        "commune": "Staffelfelden",
        "long": "7.255359",
        "lat": "47.826855",
        "aap": "caap",
        "commentaire": "",
        "Internet": "",
        "Intranet": "",
        "phase": "inconnu"
    },
    {
        "id": "$68343ecoA",
        "projet": "Eco-Hameau Champre",
        "commune": "Ungersheim",
        "long": "7.304005",
        "lat": "47.877896",
        "aap": "caap",
        "commentaire": "",
        "Internet": "",
        "Intranet": "",
        "phase": "inconnu"
    },
    {
        "id": "$68354ecoA",
        "projet": "zellmatten2",
        "commune": "Walbach",
        "long": "7.224326",
        "lat": "48.063889",
        "aap": "caap",
        "commentaire": "",
        "Internet": "",
        "Intranet": "",
        "phase": "inconnu"
    },
    {
        "id": "$68359ecoA",
        "projet": "Wattwiller",
        "commune": "Wattwiller",
        "long": "7.176868",
        "lat": "47.835925",
        "aap": "caap",
        "commentaire": "",
        "Internet": "",
        "Intranet": "",
        "phase": "inconnu"
    },
    {
        "id": "$24268ecoA",
        "projet": "écoquartier à Meyrals",
        "commune": "Meyrals",
        "long": "1.06376",
        "lat": "44.899188",
        "aap": "autres",
        "commentaire": "",
        "Internet": "",
        "Intranet": "",
        "phase": "inconnu"
    },
    {
        "id": "$24322ecoA",
        "projet": "Redynamisation durable du quartier de la gare de Périgueux",
        "commune": "Périgueux",
        "long": "0.7211149",
        "lat": "45.184029",
        "aap": "caap",
        "commentaire": "",
        "Internet": "",
        "Intranet": "",
        "phase": "inconnu"
    },
    {
        "id": "$24376ecoA",
        "projet": "Ecoquartier de Lavalade",
        "commune": "Saint-Aulaye",
        "long": "0.138012",
        "lat": "45.204146",
        "aap": "caap",
        "commentaire": "",
        "Internet": "",
        "Intranet": "",
        "phase": "inconnu"
    },
    {
        "id": "$24568ecoA",
        "projet": "Ecopôle",
        "commune": "Vélines",
        "long": "0.107519",
        "lat": "44.8592129",
        "aap": "caap",
        "commentaire": "",
        "Internet": "",
        "Intranet": "",
        "phase": "inconnu"
    },
    {
        "id": "$33063ecoA",
        "projet": "Ginko – Berges du Lac",
        "commune": "Bordeaux",
        "long": "-0.57918",
        "lat": "44.837789",
        "aap": "label",
        "commentaire": "Label 2014",
        "Internet": "",
        "Intranet": "",
        "phase": "réalisé"
    },
    {
        "id": "$33003ecoA",
        "projet": "Quartier des Erables",
        "commune": "Ambarès-et-Lagrave",
        "long": "-0.490401",
        "lat": "44.926494",
        "aap": "caap",
        "commentaire": "",
        "Internet": "",
        "Intranet": "",
        "phase": "inconnu"
    },
    {
        "id": "$33039ecoA",
        "projet": "Terre Sud",
        "commune": "Bègles",
        "long": "-0.543784",
        "lat": "44.812023",
        "aap": "elab",
        "commentaire": "",
        "Internet": "",
        "Intranet": "",
        "phase": "inconnu"
    },
    {
        "id": "$33051ecoA",
        "projet": "Parc de Marache",
        "commune": "Biganos",
        "long": "-0.976619",
        "lat": "44.642114",
        "aap": "caap",
        "commentaire": "",
        "Internet": "",
        "Intranet": "",
        "phase": "inconnu"
    },
    {
        "id": "$33063ecoA",
        "projet": "Darwin",
        "commune": "Bordeaux",
        "long": "-0.57918",
        "lat": "44.837789",
        "aap": "caap",
        "commentaire": "",
        "Internet": "",
        "Intranet": "",
        "phase": "inconnu"
    },
    {
        "id": "$33281ecoA",
        "projet": "Démolition/Reconstruction de la résidence des Pins",
        "commune": "Merignac",
        "long": "-0.656358",
        "lat": "44.8448769",
        "aap": "caap",
        "commentaire": "",
        "Internet": "",
        "Intranet": "",
        "phase": "inconnu"
    },
    {
        "id": "$33318ecoA",
        "projet": "Renouvellement urbain du quartier Arago",
        "commune": "Pessac",
        "long": "-0.630386",
        "lat": "44.80583",
        "aap": "elab",
        "commentaire": "",
        "Internet": "",
        "Intranet": "",
        "phase": "inconnu"
    },
    {
        "id": "$33523ecoA",
        "projet": "Quartier Campagnard Durable de Targon",
        "commune": "Targon",
        "long": "-0.264216",
        "lat": "44.73451",
        "aap": "caap",
        "commentaire": "",
        "Internet": "",
        "Intranet": "",
        "phase": "inconnu"
    },
    {
        "id": "$40001ecoA",
        "projet": "Eco-quartier de Lariou",
        "commune": "Aire sur l&apos;Adour",
        "long": "-0.262294",
        "lat": "43.700062",
        "aap": "caap",
        "commentaire": "",
        "Internet": "",
        "Intranet": "",
        "phase": "inconnu"
    },
    {
        "id": "$40088ecoA",
        "projet": "Quartier de la Gare",
        "commune": "Dax",
        "long": "-1.051945",
        "lat": "43.708608",
        "aap": "caap",
        "commentaire": "",
        "Internet": "",
        "Intranet": "",
        "phase": "inconnu"
    },
    {
        "id": "$40088ecoB",
        "projet": "Le Mousse",
        "commune": "Dax",
        "long": "-1.051945",
        "lat": "43.708608",
        "aap": "caap",
        "commentaire": "",
        "Internet": "",
        "Intranet": "",
        "phase": "inconnu"
    },
    {
        "id": "$40105ecoA",
        "projet": "Eco-lotissement et 8 éco-constructions",
        "commune": "Garein",
        "long": "-0.6523989",
        "lat": "44.046704",
        "aap": "caap",
        "commentaire": "",
        "Internet": "",
        "Intranet": "",
        "phase": "inconnu"
    },
    {
        "id": "$40184ecoA",
        "projet": "Lotissement Pyramide 2",
        "commune": "Mimizan",
        "long": "-1.2280089",
        "lat": "44.200417",
        "aap": "caap",
        "commentaire": "",
        "Internet": "",
        "Intranet": "",
        "phase": "inconnu"
    },
    {
        "id": "$40184ecoB",
        "projet": "ZAC Les Hournails",
        "commune": "Mimizan",
        "long": "-1.2280089",
        "lat": "44.200417",
        "aap": "caap",
        "commentaire": "",
        "Internet": "",
        "Intranet": "",
        "phase": "inconnu"
    },
    {
        "id": "$40192ecoA",
        "projet": "ecoquartier du peyrouat",
        "commune": "Mont de marsan",
        "long": "-0.499782",
        "lat": "43.893485",
        "aap": "caap",
        "commentaire": "",
        "Internet": "",
        "Intranet": "",
        "phase": "inconnu"
    },
    {
        "id": "$47145ecoA",
        "projet": "Centre bourg",
        "commune": "Layrac",
        "long": "0.660689",
        "lat": "44.134673",
        "aap": "caap",
        "commentaire": "",
        "Internet": "",
        "Intranet": "",
        "phase": "inconnu"
    },
    {
        "id": "$47233ecoA",
        "projet": "Ecoquartier Montplaisir",
        "commune": "Sainte Bazeille (Val Garonne Agglomération)",
        "long": "-0.2995785",
        "lat": "44.7002222",
        "aap": "elab",
        "commentaire": "",
        "Internet": "",
        "Intranet": "",
        "phase": "inconnu"
    },
    {
        "id": "$64024ecoA",
        "projet": "écoquartier du Maharin",
        "commune": "Anglet",
        "long": "-1.514699",
        "lat": "43.481402",
        "aap": "caap",
        "commentaire": "",
        "Internet": "",
        "Intranet": "",
        "phase": "inconnu"
    },
    {
        "id": "$64102ecoA",
        "projet": "ZAC du Séqué",
        "commune": "Bayonne",
        "long": "-1.474841",
        "lat": "43.492949",
        "aap": "caap",
        "commentaire": "",
        "Internet": "",
        "Intranet": "",
        "phase": "inconnu"
    },
    {
        "id": "$64430ecoA",
        "projet": "Eco quartier du Pesqué",
        "commune": "Orthez",
        "long": "-0.7739279",
        "lat": "43.48756",
        "aap": "caap",
        "commentaire": "",
        "Internet": "",
        "Intranet": "",
        "phase": "inconnu"
    },
    {
        "id": "$64445ecoA",
        "projet": "Portes de gaves",
        "commune": "Pau",
        "long": "-0.370797",
        "lat": "43.2951",
        "aap": "caap",
        "commentaire": "",
        "Internet": "",
        "Intranet": "",
        "phase": "inconnu"
    },
    {
        "id": "$64483ecoA",
        "projet": "ZAC Alturan",
        "commune": "Saint-Jean-de-Luz",
        "long": "-1.663055",
        "lat": "43.388051",
        "aap": "caap",
        "commentaire": "",
        "Internet": "",
        "Intranet": "",
        "phase": "inconnu"
    },
    {
        "id": "$03003ecoA",
        "projet": "ecoquartier ainay le chateau",
        "commune": "Ainay-le-château",
        "long": "2.691018",
        "lat": "46.709714",
        "aap": "caap",
        "commentaire": "",
        "Internet": "",
        "Intranet": "",
        "phase": "inconnu"
    },
    {
        "id": "$03022ecoA",
        "projet": "écoquartier à Bellenaves",
        "commune": "Bellenaves",
        "long": "3.078766",
        "lat": "46.199375",
        "aap": "clab",
        "commentaire": "",
        "Internet": "",
        "Intranet": "",
        "phase": "inconnu"
    },
    {
        "id": "$03023ecoA",
        "projet": "Les coteaux du Briandet",
        "commune": "Bellerive sur Allier",
        "long": "3.402355",
        "lat": "46.117638",
        "aap": "clab",
        "commentaire": "",
        "Internet": "",
        "Intranet": "",
        "phase": "inconnu"
    },
    {
        "id": "$03310ecoA",
        "projet": "Les Rives d&apos;Allier",
        "commune": "Vichy",
        "long": "3.425488",
        "lat": "46.131859",
        "aap": "caap",
        "commentaire": "",
        "Internet": "",
        "Intranet": "",
        "phase": "inconnu"
    },
    {
        "id": "$15014ecoA",
        "projet": "Eco-quartier du Vialenc",
        "commune": "Aurillac",
        "long": "2.444997",
        "lat": "44.930953",
        "aap": "caap",
        "commentaire": "",
        "Internet": "",
        "Intranet": "",
        "phase": "inconnu"
    },
    {
        "id": "$15061ecoA",
        "projet": "ECOLOTISSEMENT DU PEUCH",
        "commune": "Dienne",
        "long": "2.787603",
        "lat": "45.159612",
        "aap": "caap",
        "commentaire": "",
        "Internet": "",
        "Intranet": "",
        "phase": "inconnu"
    },
    {
        "id": "$15138ecoA",
        "projet": "Réhabilitation de deux bâtiments communaux (Mairie+ancienne école maternelle) avec installation d&apos;un réseau de chaleur",
        "commune": "Murat",
        "long": "2.86973",
        "lat": "45.1106539",
        "aap": "caap",
        "commentaire": "",
        "Internet": "",
        "Intranet": "",
        "phase": "inconnu"
    },
    {
        "id": "$43157ecoA",
        "projet": "Ecoquartier de Coloin",
        "commune": "Puy-en-Velay (Le)",
        "long": "3.882936",
        "lat": "45.042768",
        "aap": "caap",
        "commentaire": "",
        "Internet": "",
        "Intranet": "",
        "phase": "inconnu"
    },
    {
        "id": "$63032ecoA",
        "projet": "Coeur de ville",
        "commune": "Beaumont",
        "long": "3.085606",
        "lat": "45.754198",
        "aap": "caap",
        "commentaire": "",
        "Internet": "",
        "Intranet": "",
        "phase": "inconnu"
    },
    {
        "id": "$63037ecoA",
        "projet": "Ecohameau de Puy Bayou",
        "commune": "Bertignat",
        "long": "3.680842",
        "lat": "45.618299",
        "aap": "elab",
        "commentaire": "",
        "Internet": "",
        "Intranet": "",
        "phase": "inconnu"
    },
    {
        "id": "$63063ecoA",
        "projet": "Les trois fées ",
        "commune": "Cébazat",
        "long": "3.100247",
        "lat": "45.831268",
        "aap": "caap",
        "commentaire": "",
        "Internet": "",
        "Intranet": "",
        "phase": "inconnu"
    },
    {
        "id": "$63091ecoA",
        "projet": "Carreau de la Mine",
        "commune": "Charbonnier-les-Mines",
        "long": "3.2839109",
        "lat": "45.417764",
        "aap": "caap",
        "commentaire": "",
        "Internet": "",
        "Intranet": "",
        "phase": "inconnu"
    },
    {
        "id": "$63113ecoA",
        "projet": "Champratel",
        "commune": "Clermont-Ferrand",
        "long": "3.087025",
        "lat": "45.777222",
        "aap": "caap",
        "commentaire": "",
        "Internet": "",
        "Intranet": "",
        "phase": "inconnu"
    },
    {
        "id": "$63113ecoB",
        "projet": "Tremonteix",
        "commune": "Clermont-Ferrand",
        "long": "3.087025",
        "lat": "45.777222",
        "aap": "caap",
        "commentaire": "",
        "Internet": "",
        "Intranet": "",
        "phase": "inconnu"
    },
    {
        "id": "$63124ecoA",
        "projet": "Le Palavezy",
        "commune": "Cournon d&apos;Auvergne",
        "long": "3.198177",
        "lat": "45.741532",
        "aap": "caap",
        "commentaire": "",
        "Internet": "",
        "Intranet": "",
        "phase": "inconnu"
    },
    {
        "id": "$63178ecoA",
        "projet": "le quartier du bout du monde",
        "commune": "Issoire",
        "long": "3.248128",
        "lat": "45.54151",
        "aap": "caap",
        "commentaire": "",
        "Internet": "",
        "Intranet": "",
        "phase": "inconnu"
    },
    {
        "id": "$63300ecoA",
        "projet": "ILOT GRENIER",
        "commune": "Riom",
        "long": "3.114932",
        "lat": "45.8939949",
        "aap": "caap",
        "commentaire": "",
        "Internet": "",
        "Intranet": "",
        "phase": "inconnu"
    },
    {
        "id": "$21231ecoA",
        "projet": "Heudelet 26",
        "commune": "Dijon",
        "long": "5.04148",
        "lat": "47.322047",
        "aap": "caap",
        "commentaire": "",
        "Internet": "",
        "Intranet": "",
        "phase": "inconnu"
    },
    {
        "id": "$21232ecoA",
        "projet": "Arsenal",
        "commune": "Dijon",
        "long": "5.04148",
        "lat": "47.322047",
        "aap": "clab",
        "commentaire": "",
        "Internet": "",
        "Intranet": "",
        "phase": "inconnu"
    },
    {
        "id": "$21355ecoA",
        "projet": "les Rives du Bief",
        "commune": "Longvic",
        "long": "5.06111",
        "lat": "47.285177",
        "aap": "label",
        "commentaire": "Label 2014",
        "Internet": "",
        "Intranet": "",
        "phase": "inconnu"
    },
    {
        "id": "$21370ecoA",
        "projet": "zac Magny sur tille",
        "commune": "Magny sur Tille",
        "long": "5.173793",
        "lat": "47.273085",
        "aap": "caap",
        "commentaire": "",
        "Internet": "",
        "Intranet": "",
        "phase": "inconnu"
    },
    {
        "id": "$21383ecoA",
        "projet": "EQ avec la commune d&apos;Is sur Tille",
        "commune": "Marcilly sur Tille",
        "long": "5.13214",
        "lat": "47.5193889",
        "aap": "autres",
        "commentaire": "",
        "Internet": "",
        "Intranet": "",
        "phase": "inconnu"
    },
    {
        "id": "$21425ecoA",
        "projet": "écoquartier à Montbard",
        "commune": "Montbard",
        "long": "4.337495",
        "lat": "47.624329",
        "aap": "autres",
        "commentaire": "",
        "Internet": "",
        "Intranet": "",
        "phase": "inconnu"
    },
    {
        "id": "$21591ecoA",
        "projet": "LES HAUTS DE SAVIGNY",
        "commune": "Savigny-le-Sec",
        "long": "5.053217",
        "lat": "47.430255",
        "aap": "caap",
        "commentaire": "",
        "Internet": "",
        "Intranet": "",
        "phase": "inconnu"
    },
    {
        "id": "$21710ecoA",
        "projet": "Lieudit «Saint-Germain»",
        "commune": "Vitteaux",
        "long": "4.539693",
        "lat": "47.399533",
        "aap": "caap",
        "commentaire": "",
        "Internet": "",
        "Intranet": "",
        "phase": "inconnu"
    },
    {
        "id": "$71076ecoA",
        "projet": "Chemin de la coudre",
        "commune": "Chalon-sur-Saône",
        "long": "4.853947",
        "lat": "46.780764",
        "aap": "caap",
        "commentaire": "",
        "Internet": "",
        "Intranet": "",
        "phase": "inconnu"
    },
    {
        "id": "$71105ecoA",
        "projet": "Nouvelle Coupée",
        "commune": "Charnay-Lès-Mâcon",
        "long": "4.800459",
        "lat": "46.309859",
        "aap": "caap",
        "commentaire": "",
        "Internet": "",
        "Intranet": "",
        "phase": "inconnu"
    },
    {
        "id": "$71157ecoA",
        "projet": "Une nouvelle ville dans la ville",
        "commune": "Cuiseaux",
        "long": "5.389005",
        "lat": "46.4940939",
        "aap": "caap",
        "commentaire": "",
        "Internet": "",
        "Intranet": "",
        "phase": "inconnu"
    },
    {
        "id": "$71486ecoA",
        "projet": "Saint Vallier - Les Goujons",
        "commune": "Saint-Vallier",
        "long": "4.371392",
        "lat": "46.640942",
        "aap": "caap",
        "commentaire": "",
        "Internet": "",
        "Intranet": "",
        "phase": "inconnu"
    },
    {
        "id": "$71543ecoA",
        "projet": "La Petite Condemine",
        "commune": "Tournus",
        "long": "4.9119529",
        "lat": "46.561816",
        "aap": "caap",
        "commentaire": "",
        "Internet": "",
        "Intranet": "",
        "phase": "inconnu"
    },
    {
        "id": "$71545ecoA",
        "projet": "Ecorces",
        "commune": "Tramayes",
        "long": "4.598502",
        "lat": "46.306281",
        "aap": "caap",
        "commentaire": "",
        "Internet": "",
        "Intranet": "",
        "phase": "inconnu"
    },
    {
        "id": "$89024ecoA",
        "projet": "Eco-Quartier des Brichères",
        "commune": "Auxerre",
        "long": "3.573781",
        "lat": "47.798202",
        "aap": "caap",
        "commentaire": "",
        "Internet": "",
        "Intranet": "",
        "phase": "inconnu"
    },
    {
        "id": "$89345ecoA",
        "projet": "nosée",
        "commune": "Saint-Florentin",
        "long": "3.729512",
        "lat": "48.000552",
        "aap": "caap",
        "commentaire": "",
        "Internet": "",
        "Intranet": "",
        "phase": "inconnu"
    },
    {
        "id": "$22070ecoA",
        "projet": "Projet Ecoquartier de Gourland",
        "commune": "Guingamp",
        "long": "-3.148352",
        "lat": "48.561366",
        "aap": "caap",
        "commentaire": "",
        "Internet": "",
        "Intranet": "",
        "phase": "inconnu"
    },
    {
        "id": "$22074ecoA",
        "projet": "Lotissement du bourg",
        "commune": "Haut-Corlay (Le)",
        "long": "-3.057157",
        "lat": "48.321641",
        "aap": "caap",
        "commentaire": "",
        "Internet": "",
        "Intranet": "",
        "phase": "inconnu"
    },
    {
        "id": "$22094ecoA",
        "projet": "écoquartier à Lancieux",
        "commune": "Lancieux",
        "long": "-2.149071",
        "lat": "48.609433",
        "aap": "autres",
        "commentaire": "",
        "Internet": "",
        "Intranet": "",
        "phase": "inconnu"
    },
    {
        "id": "$22147ecoA",
        "projet": "ZAC de la Héronnière",
        "commune": "Merdrignac",
        "long": "-2.410899",
        "lat": "48.190983",
        "aap": "caap",
        "commentaire": "",
        "Internet": "",
        "Intranet": "",
        "phase": "inconnu"
    },
    {
        "id": "$22278ecoA",
        "projet": "Europe",
        "commune": "Saint-Brieuc",
        "long": "-2.765835",
        "lat": "48.51418",
        "aap": "clab",
        "commentaire": "",
        "Internet": "",
        "Intranet": "",
        "phase": "inconnu"
    },
    {
        "id": "$29019ecoA",
        "projet": "Plateau des Capucins",
        "commune": "Brest",
        "long": "-4.486076",
        "lat": "48.390394",
        "aap": "elab",
        "commentaire": "",
        "Internet": "",
        "Intranet": "",
        "phase": "inconnu"
    },
    {
        "id": "$29043ecoA",
        "projet": "Quartier centre bourg",
        "commune": "Daoulas",
        "long": "-4.260687",
        "lat": "48.357785",
        "aap": "clab",
        "commentaire": "",
        "Internet": "",
        "Intranet": "",
        "phase": "inconnu"
    },
    {
        "id": "$29043ecoB",
        "projet": "Pouligou",
        "commune": "Daoulas",
        "long": "-4.260687",
        "lat": "48.357785",
        "aap": "clab",
        "commentaire": "",
        "Internet": "",
        "Intranet": "",
        "phase": "inconnu"
    },
    {
        "id": "$29077ecoA",
        "projet": "Lotissement Communal",
        "commune": "Guisseny",
        "long": "-4.409543",
        "lat": "48.634021",
        "aap": "caap",
        "commentaire": "",
        "Internet": "",
        "Intranet": "",
        "phase": "inconnu"
    },
    {
        "id": "$29136ecoA",
        "projet": "Quartier centre bourg",
        "commune": "Pleyber-Christ",
        "long": "-3.875395",
        "lat": "48.504686",
        "aap": "clab",
        "commentaire": "",
        "Internet": "",
        "Intranet": "",
        "phase": "inconnu"
    },
    {
        "id": "$29212ecoA",
        "projet": "Eco Village de Lannilis",
        "commune": "Plouzané",
        "long": "-4.620404",
        "lat": "48.381438",
        "aap": "caap",
        "commentaire": "",
        "Internet": "",
        "Intranet": "",
        "phase": "inconnu"
    },
    {
        "id": "$29220ecoA",
        "projet": "Quartier de la Gare",
        "commune": "Pont-l&apos;Abbé",
        "long": "-4.222298",
        "lat": "47.866915",
        "aap": "caap",
        "commentaire": "",
        "Internet": "",
        "Intranet": "",
        "phase": "inconnu"
    },
    {
        "id": "$29232ecoA",
        "projet": "Secteur de Kervalguen",
        "commune": "Quimper",
        "long": "-4.097899",
        "lat": "47.997542",
        "aap": "caap",
        "commentaire": "",
        "Internet": "",
        "Intranet": "",
        "phase": "inconnu"
    },
    {
        "id": "$29232ecoB",
        "projet": "Secteur de Kervouyec",
        "commune": "Quimper",
        "long": "-4.097899",
        "lat": "47.997542",
        "aap": "caap",
        "commentaire": "",
        "Internet": "",
        "Intranet": "",
        "phase": "inconnu"
    },
    {
        "id": "$35001ecoA",
        "projet": "ZAC du Champs du Botrel",
        "commune": "Acigné",
        "long": "-1.533848",
        "lat": "48.1336749",
        "aap": "caap",
        "commentaire": "",
        "Internet": "",
        "Intranet": "",
        "phase": "inconnu"
    },
    {
        "id": "$35049ecoA",
        "projet": "ZAC du Clos de Nogain",
        "commune": "Cancale",
        "long": "-1.852279",
        "lat": "48.67707",
        "aap": "caap",
        "commentaire": "",
        "Internet": "",
        "Intranet": "",
        "phase": "inconnu"
    },
    {
        "id": "$35055ecoA",
        "projet": "Bocage citadin",
        "commune": "Chantepie",
        "long": "-1.618455",
        "lat": "48.089126",
        "aap": "clab",
        "commentaire": "",
        "Internet": "",
        "Intranet": "",
        "phase": "inconnu"
    },
    {
        "id": "$35055ecoB",
        "projet": "ZAC des Rives du Blosne",
        "commune": "Chantepie",
        "long": "-1.618455",
        "lat": "48.089126",
        "aap": "autres",
        "commentaire": "",
        "Internet": "",
        "Intranet": "",
        "phase": "inconnu"
    },
    {
        "id": "$35079ecoA",
        "projet": "EcoHameau ZAC de la Branchère",
        "commune": "Chevaigné",
        "long": "-1.630622",
        "lat": "48.211236",
        "aap": "elab",
        "commentaire": "",
        "Internet": "",
        "Intranet": "",
        "phase": "inconnu"
    },
    {
        "id": "$35080ecoA",
        "projet": "Lotissement le Clos de la Vallée",
        "commune": "Cintré",
        "long": "-1.872097",
        "lat": "48.105679",
        "aap": "caap",
        "commentaire": "",
        "Internet": "",
        "Intranet": "",
        "phase": "inconnu"
    },
    {
        "id": "$35095ecoA",
        "projet": "Maboué",
        "commune": "Dol de Bretagne",
        "long": "-1.753965",
        "lat": "48.54969",
        "aap": "clab",
        "commentaire": "",
        "Internet": "",
        "Intranet": "",
        "phase": "inconnu"
    },
    {
        "id": "$35124ecoA",
        "projet": "ZAC «Plein Sud Villages»",
        "commune": "Grand Fougeray",
        "long": "-1.731791",
        "lat": "47.722478",
        "aap": "caap",
        "commentaire": "",
        "Internet": "",
        "Intranet": "",
        "phase": "inconnu"
    },
    {
        "id": "$35130ecoA",
        "projet": "Les Courtils",
        "commune": "Hédé-Bazouges",
        "long": "-1.802047",
        "lat": "48.295423",
        "aap": "label",
        "commentaire": "Label 2014",
        "Internet": "",
        "Intranet": "",
        "phase": "inconnu"
    },
    {
        "id": "$35065ecoA",
        "projet": "La Niche aux Oiseaux",
        "commune": "La Chapelle-Thouarault",
        "long": "-1.86672",
        "lat": "48.123757",
        "aap": "elab",
        "commentaire": "",
        "Internet": "",
        "Intranet": "",
        "phase": "inconnu"
    },
    {
        "id": "$35174ecoA",
        "projet": "Lotissement Environnemental de Mellé",
        "commune": "Mellé",
        "long": "-1.188688",
        "lat": "48.488012",
        "aap": "caap",
        "commentaire": "",
        "Internet": "",
        "Intranet": "",
        "phase": "inconnu"
    },
    {
        "id": "$35188ecoA",
        "projet": "Parc de la Touchère",
        "commune": "Montfort-sur-Meu",
        "long": "-1.9533241",
        "lat": "48.1426661",
        "aap": "caap",
        "commentaire": "",
        "Internet": "",
        "Intranet": "",
        "phase": "inconnu"
    },
    {
        "id": "$35193ecoA",
        "projet": "Nouvel Air, Le Pommier (Bretagne, 35)",
        "commune": "Montreuil-Le-Gast",
        "long": "-1.729072",
        "lat": "48.247179",
        "aap": "caap",
        "commentaire": "",
        "Internet": "",
        "Intranet": "",
        "phase": "inconnu"
    },
    {
        "id": "$35208ecoA",
        "projet": "La Zac des Prairies d&apos;Orgères",
        "commune": "Orgères",
        "long": "-1.667539",
        "lat": "47.995612",
        "aap": "caap",
        "commentaire": "",
        "Internet": "",
        "Intranet": "",
        "phase": "inconnu"
    },
    {
        "id": "$35210ecoA",
        "projet": "écoquartier à Pacé",
        "commune": "Pacé",
        "long": "-1.77276",
        "lat": "48.146698",
        "aap": "autres",
        "commentaire": "",
        "Internet": "",
        "Intranet": "",
        "phase": "inconnu"
    },
    {
        "id": "$35238ecoA",
        "projet": "la Courrouze",
        "commune": "Saint-Jacques-de-la-Lande",
        "long": "48065963",
        "lat": "-1722328",
        "aap": "clab",
        "commentaire": "",
        "Internet": "",
        "Intranet": "",
        "phase": "inconnu"
    },
    {
        "id": "$35251ecoA",
        "projet": "écoquartier à Saint Aubin d&apos;Aubigné",
        "commune": "Saint Aubin d&apos;Aubigné",
        "long": "-1.606188",
        "lat": "48.263171",
        "aap": "autres",
        "commentaire": "",
        "Internet": "",
        "Intranet": "",
        "phase": "inconnu"
    },
    {
        "id": "$35356ecoA",
        "projet": "Le bourg, les fresches, le pont",
        "commune": "Vignoc",
        "long": "-1.785045",
        "lat": "48.248579",
        "aap": "caap",
        "commentaire": "",
        "Internet": "",
        "Intranet": "",
        "phase": "inconnu"
    },
    {
        "id": "$35353ecoA",
        "projet": "Les champs bleus",
        "commune": "Vezin-le-Coquet",
        "long": "-1.755908",
        "lat": "48.118465",
        "aap": "clab",
        "commentaire": "",
        "Internet": "",
        "Intranet": "",
        "phase": "inconnu"
    },
    {
        "id": "$56121ecoA",
        "projet": "L’Enclos du port",
        "commune": "Lorient",
        "long": "-3.3702449",
        "lat": "47.7482524",
        "aap": "caap",
        "commentaire": "",
        "Internet": "",
        "Intranet": "",
        "phase": "inconnu"
    },
    {
        "id": "$56121ecoA",
        "projet": "ecoquartier du Manio",
        "commune": "Lorient",
        "long": "-3.3702449",
        "lat": "47.7482524",
        "aap": "caap",
        "commentaire": "",
        "Internet": "",
        "Intranet": "",
        "phase": "inconnu"
    },
    {
        "id": "$56162ecoA",
        "projet": "ZAC Grand Pré Kéradehuen",
        "commune": "Ploemeur",
        "long": "-3.42714",
        "lat": "47.735695",
        "aap": "autres",
        "commentaire": "",
        "Internet": "",
        "Intranet": "",
        "phase": "inconnu"
    },
    {
        "id": "$56185ecoA",
        "projet": "Croizamus",
        "commune": "Queven",
        "long": "-3.418031",
        "lat": "47.787647",
        "aap": "caap",
        "commentaire": "",
        "Internet": "",
        "Intranet": "",
        "phase": "inconnu"
    },
    {
        "id": "$56206ecoA",
        "projet": "ZAC de Beausoleil",
        "commune": "Saint-Avé",
        "long": "-2.73568",
        "lat": "47.68981",
        "aap": "elab",
        "commentaire": "",
        "Internet": "",
        "Intranet": "",
        "phase": "inconnu"
    },
    {
        "id": "$56231ecoA",
        "projet": "Ecocité du Pré Vert",
        "commune": "Saint-Nolff",
        "long": "-2.651779",
        "lat": "47.702885",
        "aap": "clab",
        "commentaire": "",
        "Internet": "",
        "Intranet": "",
        "phase": "inconnu"
    },
    {
        "id": "$56241ecoA",
        "projet": "Haut du Bourg",
        "commune": "Sauzon",
        "long": "-3.221835",
        "lat": "47.371129",
        "aap": "caap",
        "commentaire": "",
        "Internet": "",
        "Intranet": "",
        "phase": "inconnu"
    },
    {
        "id": "$56243ecoA",
        "projet": "Coeur de Poulfanc",
        "commune": "Séné",
        "long": "-2.737159",
        "lat": "47.619804",
        "aap": "clab",
        "commentaire": "",
        "Internet": "",
        "Intranet": "",
        "phase": "inconnu"
    },
    {
        "id": "$18033ecoA",
        "projet": "Eco quartier Baudens",
        "commune": "Bourges",
        "long": "2.398782",
        "lat": "47.081012",
        "aap": "elab",
        "commentaire": "",
        "Internet": "",
        "Intranet": "",
        "phase": "inconnu"
    },
    {
        "id": "$28085ecoA",
        "projet": "Plateau Nord Ouest",
        "commune": "Chartres",
        "long": "1.489012",
        "lat": "48.443854",
        "aap": "caap",
        "commentaire": "",
        "Internet": "",
        "Intranet": "",
        "phase": "inconnu"
    },
    {
        "id": "$36044ecoA",
        "projet": "BALSAN",
        "commune": "Châteauroux",
        "long": "1.686779",
        "lat": "46.811434",
        "aap": "caap",
        "commentaire": "",
        "Internet": "",
        "Intranet": "",
        "phase": "inconnu"
    },
    {
        "id": "$36104ecoA",
        "projet": "le Grand Claud",
        "commune": "Lurais",
        "long": "0.951392",
        "lat": "46.704637",
        "aap": "elab",
        "commentaire": "",
        "Internet": "",
        "Intranet": "",
        "phase": "inconnu"
    },
    {
        "id": "$37014ecoA",
        "projet": "Haute varenne et gare",
        "commune": "Azay le Rideau",
        "long": "0.46574",
        "lat": "47.26177",
        "aap": "caap",
        "commentaire": "",
        "Internet": "",
        "Intranet": "",
        "phase": "inconnu"
    },
    {
        "id": "$37050ecoA",
        "projet": "écoquartier à Chambray-les-Tours",
        "commune": "Chambray-les-Tours",
        "long": "0.7013087",
        "lat": "47.3376625",
        "aap": "autres",
        "commentaire": "",
        "Internet": "",
        "Intranet": "",
        "phase": "inconnu"
    },
    {
        "id": "$37122ecoA",
        "projet": "quartier durable ",
        "commune": "Joué lès Tours",
        "long": "0.6613099",
        "lat": "47.351861",
        "aap": "caap",
        "commentaire": "",
        "Internet": "",
        "Intranet": "",
        "phase": "inconnu"
    },
    {
        "id": "$37156ecoA",
        "projet": "Les Hauts de Montlouis",
        "commune": "Montlouis sur Loire",
        "long": "0.827383",
        "lat": "47.388264",
        "aap": "caap",
        "commentaire": "",
        "Internet": "",
        "Intranet": "",
        "phase": "inconnu"
    },
    {
        "id": "$37195ecoA",
        "projet": "ZAC Plessis Botanique",
        "commune": "Riche (La)",
        "long": "0.658258",
        "lat": "47.388309",
        "aap": "clab",
        "commentaire": "",
        "Internet": "",
        "Intranet": "",
        "phase": "inconnu"
    },
    {
        "id": "$37261ecoA",
        "projet": "Ecoquartier de Monconseil",
        "commune": "Tours",
        "long": "0.68484",
        "lat": "47.394144",
        "aap": "label",
        "commentaire": "Label 2014",
        "Internet": "",
        "Intranet": "",
        "phase": "inconnu"
    },
    {
        "id": "$37261ecoB",
        "projet": "Casernes Beaumont-Chauveau",
        "commune": "Tours",
        "long": "0.68484",
        "lat": "47.394144",
        "aap": "autres",
        "commentaire": "",
        "Internet": "",
        "Intranet": "",
        "phase": "inconnu"
    },
    {
        "id": "$37266ecoA",
        "projet": "La Zac des Gués",
        "commune": "Veigné",
        "long": "0.737711",
        "lat": "47.286057",
        "aap": "clab",
        "commentaire": "",
        "Internet": "",
        "Intranet": "",
        "phase": "inconnu"
    },
    {
        "id": "$37271ecoA",
        "projet": "la martinière:projet coopératif, commune et habitants",
        "commune": "Villaines les rochers",
        "long": "0.497731",
        "lat": "47.218976",
        "aap": "caap",
        "commentaire": "",
        "Internet": "",
        "Intranet": "",
        "phase": "inconnu"
    },
    {
        "id": "$41047ecoA",
        "projet": "Aménagement du Clos du bourg",
        "commune": "Chaussée Saint-Victor (La)",
        "long": "1.3551089",
        "lat": "47.6125789",
        "aap": "caap",
        "commentaire": "",
        "Internet": "",
        "Intranet": "",
        "phase": "inconnu"
    },
    {
        "id": "$41276ecoA",
        "projet": "ZAC des Mézières",
        "commune": "Villebarou",
        "long": "1.322751",
        "lat": "47.622682",
        "aap": "caap",
        "commentaire": "",
        "Internet": "",
        "Intranet": "",
        "phase": "inconnu"
    },
    {
        "id": "$45034ecoA",
        "projet": "écoquartier à Boigny sur Bionne",
        "commune": "Boigny sur Bionne",
        "long": "2.009664",
        "lat": "47.922353",
        "aap": "autres",
        "commentaire": "",
        "Internet": "",
        "Intranet": "",
        "phase": "inconnu"
    },
    {
        "id": "$45068ecoA",
        "projet": "Les rives du Solin",
        "commune": "Chalette-Sur-Loing",
        "long": "2.73203",
        "lat": "48.014736",
        "aap": "caap",
        "commentaire": "",
        "Internet": "",
        "Intranet": "",
        "phase": "inconnu"
    },
    {
        "id": "$45082ecoA",
        "projet": "Zac multisite du Clos Renard, des Cigales et Gare",
        "commune": "Châteauneuf-sur-Loire",
        "long": "2.219056",
        "lat": "47.865635",
        "aap": "caap",
        "commentaire": "",
        "Internet": "",
        "Intranet": "",
        "phase": "inconnu"
    },
    {
        "id": "$45089ecoA",
        "projet": "Grainloup Est ",
        "commune": "Chécy",
        "long": "2.025287",
        "lat": "47.891459",
        "aap": "caap",
        "commentaire": "",
        "Internet": "",
        "Intranet": "",
        "phase": "inconnu"
    },
    {
        "id": "$45169ecoA",
        "projet": "les jardins du bourg",
        "commune": "Ingre",
        "long": "1.830401",
        "lat": "47.921704",
        "aap": "caap",
        "commentaire": "",
        "Internet": "",
        "Intranet": "",
        "phase": "inconnu"
    },
    {
        "id": "$45196ecoA",
        "projet": "Ecoquartier des Garennes",
        "commune": "Mareau aux Prés",
        "long": "1.796071",
        "lat": "47.848343",
        "aap": "caap",
        "commentaire": "",
        "Internet": "",
        "Intranet": "",
        "phase": "inconnu"
    },
    {
        "id": "$45234ecoA",
        "projet": "GPV de la Source",
        "commune": "Orléans",
        "long": "1.909251",
        "lat": "47.902964",
        "aap": "clab",
        "commentaire": "",
        "Internet": "",
        "Intranet": "",
        "phase": "inconnu"
    },
    {
        "id": "$45284ecoA",
        "projet": "Ecoquartier du Hameau",
        "commune": "Saint Jean de Braye",
        "long": "1.970843",
        "lat": "47.912048",
        "aap": "elab",
        "commentaire": "",
        "Internet": "",
        "Intranet": "",
        "phase": "inconnu"
    },
    {
        "id": "$08105ecoA",
        "projet": "Ecoquartier de Manchester",
        "commune": "Charleville-Mézières",
        "long": "4.726096",
        "lat": "49.762085",
        "aap": "caap",
        "commentaire": "",
        "Internet": "",
        "Intranet": "",
        "phase": "inconnu"
    },
    {
        "id": "$08105ecoB",
        "projet": "Jean-Baptiste Clément ",
        "commune": "Charleville-Mézières",
        "long": "4.726096",
        "lat": "49.762085",
        "aap": "caap",
        "commentaire": "",
        "Internet": "",
        "Intranet": "",
        "phase": "inconnu"
    },
    {
        "id": "$08145ecoA",
        "projet": "Ecoquartier les Petites Grèves",
        "commune": "Douzy",
        "long": "5.042097",
        "lat": "49.670682",
        "aap": "caap",
        "commentaire": "",
        "Internet": "",
        "Intranet": "",
        "phase": "inconnu"
    },
    {
        "id": "$08214ecoA",
        "projet": "HULLOVOYE",
        "commune": "Hargnies",
        "long": "4.791574",
        "lat": "50.020083",
        "aap": "caap",
        "commentaire": "",
        "Internet": "",
        "Intranet": "",
        "phase": "inconnu"
    },
    {
        "id": "$10193ecoA",
        "projet": "EcoQuartier Rural LESMONT",
        "commune": "Lesmont",
        "long": "4.413868",
        "lat": "48.426889",
        "aap": "caap",
        "commentaire": "",
        "Internet": "",
        "Intranet": "",
        "phase": "inconnu"
    },
    {
        "id": "$08329ecoA",
        "projet": "L&apos;éco quartier des Crêtes",
        "commune": "Novion Porcien",
        "long": "4.424809",
        "lat": "49.599239",
        "aap": "caap",
        "commentaire": "",
        "Internet": "",
        "Intranet": "",
        "phase": "inconnu"
    },
    {
        "id": "$10297ecoA",
        "projet": "Eco Quartier du Moulinet",
        "commune": "Pont-Sainte-Marie",
        "long": "4.0986459",
        "lat": "48.319107",
        "aap": "caap",
        "commentaire": "",
        "Internet": "",
        "Intranet": "",
        "phase": "inconnu"
    },
    {
        "id": "$10387ecoA",
        "projet": "ECOQUARTIER TAUXELLES",
        "commune": "Troyes",
        "long": "4.0744009",
        "lat": "48.2973451",
        "aap": "caap",
        "commentaire": "",
        "Internet": "",
        "Intranet": "",
        "phase": "inconnu"
    },
    {
        "id": "$51052ecoA",
        "projet": "Espace intergénérationnel à BERRU",
        "commune": "Berru",
        "long": "4.162974",
        "lat": "49.270909",
        "aap": "caap",
        "commentaire": "",
        "Internet": "",
        "Intranet": "",
        "phase": "inconnu"
    },
    {
        "id": "$51055ecoA",
        "projet": "pôle intergénérationnel",
        "commune": "Betheny",
        "long": "4.064101",
        "lat": "49.285437",
        "aap": "caap",
        "commentaire": "",
        "Internet": "",
        "Intranet": "",
        "phase": "inconnu"
    },
    {
        "id": "$51195ecoA",
        "projet": "carrelles",
        "commune": "Couvrot",
        "long": "4.571769",
        "lat": "48.758552",
        "aap": "caap",
        "commentaire": "",
        "Internet": "",
        "Intranet": "",
        "phase": "inconnu"
    },
    {
        "id": "$51230ecoA",
        "projet": "Eco-quartier Terres Rouges-Beausoleil",
        "commune": "Epernay",
        "long": "3.956242",
        "lat": "49.043411",
        "aap": "caap",
        "commentaire": "",
        "Internet": "",
        "Intranet": "",
        "phase": "inconnu"
    },
    {
        "id": "$51454ecoA",
        "projet": "EcoQuartier de la 12e escadre d&apos;aviation",
        "commune": "Reims",
        "long": "4.031696",
        "lat": "49.258329",
        "aap": "caap",
        "commentaire": "",
        "Internet": "",
        "Intranet": "",
        "phase": "inconnu"
    },
    {
        "id": "$51454ecoB",
        "projet": "Dauphinot Remafer",
        "commune": "Reims",
        "long": "4.031696",
        "lat": "49.258329",
        "aap": "elab",
        "commentaire": "",
        "Internet": "",
        "Intranet": "",
        "phase": "inconnu"
    },
    {
        "id": "$51454ecoA",
        "projet": "Ecoquartier Croix Rouge Pays de France",
        "commune": "Reims",
        "long": "4.031696",
        "lat": "49.258329",
        "aap": "label",
        "commentaire": "Label 2014",
        "Internet": "",
        "Intranet": "",
        "phase": "inconnu"
    },
    {
        "id": "$52121ecoA",
        "projet": "Ancien dépôt SNCF",
        "commune": "Chaumont",
        "long": "5.1392559",
        "lat": "48.113748",
        "aap": "caap",
        "commentaire": "",
        "Internet": "",
        "Intranet": "",
        "phase": "inconnu"
    },
    {
        "id": "$52250ecoA",
        "projet": "ECoquartier de la Ville de JOINVILLE",
        "commune": "Joinville",
        "long": "5.137688",
        "lat": "48.4434759",
        "aap": "caap",
        "commentaire": "",
        "Internet": "",
        "Intranet": "",
        "phase": "inconnu"
    },
    {
        "id": "$52448ecoA",
        "projet": "Requalification du site de l&apos;ancien hôpital de Saint Dizier",
        "commune": "Saint-Dizier",
        "long": "4.947418",
        "lat": "48.637692",
        "aap": "caap",
        "commentaire": "",
        "Internet": "",
        "Intranet": "",
        "phase": "inconnu"
    },
    {
        "id": "$20033ecoA",
        "projet": "Quartier de Labretto",
        "commune": "Bastia",
        "long": "9.450881",
        "lat": "42.697283",
        "aap": "caap",
        "commentaire": "",
        "Internet": "",
        "Intranet": "",
        "phase": "inconnu"
    },
    {
        "id": "$2B148ecoA",
        "projet": "Lucciana U Centru",
        "commune": "Lucciana",
        "long": "9.417275",
        "lat": "42.547134",
        "aap": "autres",
        "commentaire": "",
        "Internet": "",
        "Intranet": "",
        "phase": "inconnu"
    },
    {
        "id": "$20313ecoA",
        "projet": "Extension du bourg de Moriani plage",
        "commune": "San Nicolao",
        "long": "9.501274",
        "lat": "42.369865",
        "aap": "caap",
        "commentaire": "",
        "Internet": "",
        "Intranet": "",
        "phase": "inconnu"
    },
    {
        "id": "$25029ecoA",
        "projet": "les aubepines",
        "commune": "Aubonne",
        "long": "6.3268319",
        "lat": "47.035594",
        "aap": "caap",
        "commentaire": "",
        "Internet": "",
        "Intranet": "",
        "phase": "inconnu"
    },
    {
        "id": "$25056ecoA",
        "projet": "Les Vaites",
        "commune": "Besançon",
        "long": "6.0240539",
        "lat": "47.237829",
        "aap": "elab",
        "commentaire": "",
        "Internet": "",
        "Intranet": "",
        "phase": "inconnu"
    },
    {
        "id": "$25056ecoB",
        "projet": "Quartier de la caserne Vauban",
        "commune": "Besançon",
        "long": "6.0240539",
        "lat": "47.237829",
        "aap": "clab",
        "commentaire": "",
        "Internet": "",
        "Intranet": "",
        "phase": "inconnu"
    },
    {
        "id": "$25056ecoC",
        "projet": "Quartier de la gare Viotte",
        "commune": "Besançon",
        "long": "6.0240539",
        "lat": "47.237829",
        "aap": "clab",
        "commentaire": "",
        "Internet": "",
        "Intranet": "",
        "phase": "inconnu"
    },
    {
        "id": "$25397ecoA",
        "projet": "Quartier Pasteur",
        "commune": "Montferrand le Château",
        "long": "5.907952",
        "lat": "47.184029",
        "aap": "clab",
        "commentaire": "",
        "Internet": "",
        "Intranet": "",
        "phase": "inconnu"
    },
    {
        "id": "$25614ecoA",
        "projet": "Ecoquartier Innovant Pays De Montbéliard",
        "commune": "Vieux-Charmont (CA du Pays de Montbéliard)",
        "long": "6.798466",
        "lat": "47.510356",
        "aap": "elab",
        "commentaire": "",
        "Internet": "",
        "Intranet": "",
        "phase": "inconnu"
    },
    {
        "id": "$39009ecoA",
        "projet": "quartier les épinettes",
        "commune": "Andelot-en-Montagne",
        "long": "5.933576",
        "lat": "46.852776",
        "aap": "caap",
        "commentaire": "",
        "Internet": "",
        "Intranet": "",
        "phase": "inconnu"
    },
    {
        "id": "$39286ecoA",
        "projet": "Le Crêt du Bief",
        "commune": "Lavans-lès-Saint-Claude",
        "long": "5.785806",
        "lat": "46.384847",
        "aap": "clab",
        "commentaire": "",
        "Internet": "",
        "Intranet": "",
        "phase": "inconnu"
    },
    {
        "id": "$39368ecoA",
        "projet": "Villedieu Le puits",
        "commune": "Morez",
        "long": "6.0223705",
        "lat": "46.5239422",
        "aap": "label",
        "commentaire": "Label 2014",
        "Internet": "",
        "Intranet": "",
        "phase": "inconnu"
    },
    {
        "id": "$39491ecoA",
        "projet": "QUARTIER DES ECURIAIS ",
        "commune": "Saint-Lupicin",
        "long": "5.794471",
        "lat": "46.400142",
        "aap": "caap",
        "commentaire": "",
        "Internet": "",
        "Intranet": "",
        "phase": "inconnu"
    },
    {
        "id": "$70310ecoA",
        "projet": "ECOQUARTIER DES PRES LA COTE",
        "commune": "Lure",
        "long": "6.494274",
        "lat": "47.686417",
        "aap": "caap",
        "commentaire": "",
        "Internet": "",
        "Intranet": "",
        "phase": "inconnu"
    },
    {
        "id": "$97120ecoA",
        "projet": "L&apos;Assainissement, l&apos;éco quartier de Cap Excellence",
        "commune": "Commuanuté d&apos;Agglomération Cap Excellence",
        "long": "-61.5",
        "lat": "16.23",
        "aap": "caap",
        "commentaire": "",
        "Internet": "",
        "Intranet": "",
        "phase": "inconnu"
    },
    {
        "id": "$97101ecoA",
        "projet": "Les esses-les quartiers",
        "commune": "Abymes (Les)",
        "long": "-61.52",
        "lat": "16.25",
        "aap": "autres",
        "commentaire": "",
        "Internet": "",
        "Intranet": "",
        "phase": "inconnu"
    },
    {
        "id": "$97112ecoA",
        "projet": "nonile-ma ville",
        "commune": "Grand-Bourg",
        "long": "-61.3",
        "lat": "15.88",
        "aap": "caap",
        "commentaire": "",
        "Internet": "",
        "Intranet": "",
        "phase": "inconnu"
    },
    {
        "id": "$97118ecoA",
        "projet": "PETIT BOURG St Jean",
        "commune": "Petit Bourg",
        "long": "-61.5917",
        "lat": "16.1931",
        "aap": "caap",
        "commentaire": "",
        "Internet": "",
        "Intranet": "",
        "phase": "inconnu"
    },
    {
        "id": "$97313ecoA",
        "projet": "Ecoquartier Montsinéry",
        "commune": "Montsinéry-Tonnegrande",
        "long": "-52.5025224",
        "lat": "4.8947209",
        "aap": "caap",
        "commentaire": "",
        "Internet": "",
        "Intranet": "",
        "phase": "inconnu"
    },
    {
        "id": "$97309ecoA",
        "projet": "Ecoquartier Vidal",
        "commune": "Rémire-Montjoly",
        "long": "-52.2767",
        "lat": "4.905",
        "aap": "elab",
        "commentaire": "",
        "Internet": "",
        "Intranet": "",
        "phase": "inconnu"
    },
    {
        "id": "$75056ecoA",
        "projet": "Boucicault",
        "commune": "Paris",
        "long": "2.3522219",
        "lat": "48.856614",
        "aap": "label",
        "commentaire": "Label 2014",
        "Internet": "",
        "Intranet": "",
        "phase": "inconnu"
    },
    {
        "id": "$75056ecoB",
        "projet": "Clichy-Batignolles",
        "commune": "Paris",
        "long": "2.3522219",
        "lat": "48.856614",
        "aap": "elab",
        "commentaire": "",
        "Internet": "",
        "Intranet": "",
        "phase": "inconnu"
    },
    {
        "id": "$75056ecoC",
        "projet": "Fréquel-Fontarabie",
        "commune": "Paris",
        "long": "2.3522219",
        "lat": "48.856614",
        "aap": "label",
        "commentaire": "Label 2013",
        "Internet": "",
        "Intranet": "",
        "phase": "inconnu"
    },
    {
        "id": "$75056ecoD",
        "projet": "ZAC Gare de Rungis",
        "commune": "Paris",
        "long": "2.3522219",
        "lat": "48.856614",
        "aap": "caap",
        "commentaire": "",
        "Internet": "",
        "Intranet": "",
        "phase": "inconnu"
    },
    {
        "id": "$75056ecoE",
        "projet": "ZAC Pajol",
        "commune": "Paris",
        "long": "2.3522219",
        "lat": "48.856614",
        "aap": "clab",
        "commentaire": "",
        "Internet": "",
        "Intranet": "",
        "phase": "inconnu"
    },
    {
        "id": "$75056ecoA",
        "projet": "ZAC Claude Bernard",
        "commune": "Paris",
        "long": "2.3522219",
        "lat": "48.856614",
        "aap": "label",
        "commentaire": "Label 2013",
        "Internet": "",
        "Intranet": "",
        "phase": "inconnu"
    },
    {
        "id": "$77014ecoA",
        "projet": "L&apos;éco-quartier des Yèbles de Changis",
        "commune": "Avon",
        "long": "2.720733",
        "lat": "48.404839",
        "aap": "caap",
        "commentaire": "",
        "Internet": "",
        "Intranet": "",
        "phase": "inconnu"
    },
    {
        "id": "$77058ecoA",
        "projet": "Écoquartier du Sycomore",
        "commune": "Bussy-Saint-Geoges",
        "long": "2.69802",
        "lat": "48.842205",
        "aap": "clab",
        "commentaire": "",
        "Internet": "",
        "Intranet": "",
        "phase": "inconnu"
    },
    {
        "id": "$77108ecoA",
        "projet": "ZAC Eco-quartier Castermant",
        "commune": "Chelles",
        "long": "2.59016",
        "lat": "48.877535",
        "aap": "caap",
        "commentaire": "",
        "Internet": "",
        "Intranet": "",
        "phase": "inconnu"
    },
    {
        "id": "$77118ecoA",
        "projet": "Le Bois des Granges",
        "commune": "Claye Souilly",
        "long": "2.68836",
        "lat": "48.945849",
        "aap": "caap",
        "commentaire": "",
        "Internet": "",
        "Intranet": "",
        "phase": "inconnu"
    },
    {
        "id": "$77132ecoA",
        "projet": "quartier Coupvray",
        "commune": "Coupvray",
        "long": "2.794171",
        "lat": "48.892152",
        "aap": "autres",
        "commentaire": "",
        "Internet": "",
        "Intranet": "",
        "phase": "inconnu"
    },
    {
        "id": "$77251ecoA",
        "projet": "Écoquartier de l’Eau Vive",
        "commune": "Lieusaint",
        "long": "2.551107",
        "lat": "48.631195",
        "aap": "elab",
        "commentaire": "",
        "Internet": "",
        "Intranet": "",
        "phase": "inconnu"
    },
    {
        "id": "$77284ecoA",
        "projet": "Écoquartier Foch-Roosevelt",
        "commune": "Meaux",
        "long": "2.8884657",
        "lat": "48.9562018",
        "aap": "elab",
        "commentaire": "",
        "Internet": "",
        "Intranet": "",
        "phase": "inconnu"
    },
    {
        "id": "$77288ecoA",
        "projet": "Eco Quartier Plaine de Montaigu",
        "commune": "Melun",
        "long": "2.6554",
        "lat": "48.542105",
        "aap": "clab",
        "commentaire": "",
        "Internet": "",
        "Intranet": "",
        "phase": "inconnu"
    },
    {
        "id": "$77288ecoB",
        "projet": "Ecoquartier des Mézereaux",
        "commune": "Melun",
        "long": "2.6554",
        "lat": "48.542105",
        "aap": "caap",
        "commentaire": "",
        "Internet": "",
        "Intranet": "",
        "phase": "inconnu"
    },
    {
        "id": "$77305ecoA",
        "projet": "Les Bords d&apos;Eau",
        "commune": "Montereau-Fault-Yonne",
        "long": "2.956193",
        "lat": "48.384734",
        "aap": "caap",
        "commentaire": "",
        "Internet": "",
        "Intranet": "",
        "phase": "inconnu"
    },
    {
        "id": "$77307ecoA",
        "projet": "Écoquartier de Montévrain",
        "commune": "Montévrain",
        "long": "2.745977",
        "lat": "48.874927",
        "aap": "elab",
        "commentaire": "",
        "Internet": "",
        "Intranet": "",
        "phase": "inconnu"
    },
    {
        "id": "$77407ecoA",
        "projet": "La reconquête des bords de Seine",
        "commune": "Saint Fargeau Ponthierry",
        "long": "2.5242532",
        "lat": "48.5361561",
        "aap": "caap",
        "commentaire": "",
        "Internet": "",
        "Intranet": "",
        "phase": "inconnu"
    },
    {
        "id": "$77449ecoA",
        "projet": "Centre Urbain du Val d’Europe (CUVE)",
        "commune": "Serris et Chessy(Marne la Vallée)",
        "long": "2.782778",
        "lat": "48.869722",
        "aap": "clab",
        "commentaire": "",
        "Internet": "",
        "Intranet": "",
        "phase": "inconnu"
    },
    {
        "id": "$77475ecoA",
        "projet": "L&apos;ancre de Lune, un éco quartier pour Trilport",
        "commune": "Trilport",
        "long": "2.947058",
        "lat": "48.958039",
        "aap": "clab",
        "commentaire": "",
        "Internet": "",
        "Intranet": "",
        "phase": "inconnu"
    },
    {
        "id": "$78089ecoA",
        "projet": "ZAC Cœur de Ville",
        "commune": "Bonnières sur Seine",
        "long": "1.578521",
        "lat": "49.037452",
        "aap": "elab",
        "commentaire": "",
        "Internet": "",
        "Intranet": "",
        "phase": "inconnu"
    },
    {
        "id": "$78118ecoA",
        "projet": "Le Coin du Chêne",
        "commune": "Buchelay",
        "long": "1.678852",
        "lat": "48.983085",
        "aap": "caap",
        "commentaire": "",
        "Internet": "",
        "Intranet": "",
        "phase": "inconnu"
    },
    {
        "id": "$78123ecoA",
        "projet": "Boucle de Chanteloup",
        "commune": "Carrières-sous-Poissy et Triel sur Seine",
        "long": "2.005531",
        "lat": "48.989382",
        "aap": "elab",
        "commentaire": "",
        "Internet": "",
        "Intranet": "",
        "phase": "inconnu"
    },
    {
        "id": "$78361ecoA",
        "projet": "Quartier du Val Fourré",
        "commune": "Mantes la Jolie",
        "long": "1.714958",
        "lat": "48.989323",
        "aap": "elab",
        "commentaire": "",
        "Internet": "",
        "Intranet": "",
        "phase": "inconnu"
    },
    {
        "id": "$78367ecoA",
        "projet": "Champs-Droux et Violettes",
        "commune": "Mareil-Marly",
        "long": "2.076817",
        "lat": "48.882174",
        "aap": "caap",
        "commentaire": "",
        "Internet": "",
        "Intranet": "",
        "phase": "inconnu"
    },
    {
        "id": "$78423ecoA",
        "projet": "SQYES",
        "commune": "Montigny-le-Bretonneux",
        "long": "2.0360157",
        "lat": "48.7738734",
        "aap": "caap",
        "commentaire": "",
        "Internet": "",
        "Intranet": "",
        "phase": "inconnu"
    },
    {
        "id": "$78440ecoA",
        "projet": "Programme de Rénovation Urbaine des Mureaux",
        "commune": "Mureaux (Les)",
        "long": "1.912178",
        "lat": "48.990181",
        "aap": "label",
        "commentaire": "Label 2014",
        "Internet": "",
        "Intranet": "",
        "phase": "inconnu"
    },
    {
        "id": "$78440ecoB",
        "projet": "Eco quartier Les Profils ",
        "commune": "Mureaux (Les)",
        "long": "1.912178",
        "lat": "48.990181",
        "aap": "caap",
        "commentaire": "",
        "Internet": "",
        "Intranet": "",
        "phase": "inconnu"
    },
    {
        "id": "$78498ecoA",
        "projet": "quartier EOLES (Espace d&apos;Ouverture et de Liens, Ecologique et Solidaire)",
        "commune": "Poissy",
        "long": "2.046982",
        "lat": "48.929584",
        "aap": "caap",
        "commentaire": "",
        "Internet": "",
        "Intranet": "",
        "phase": "inconnu"
    },
    {
        "id": "$78551ecoA",
        "projet": "Lisière Péreire",
        "commune": "Saint Germain en Laye",
        "long": "2.093761",
        "lat": "48.898908",
        "aap": "clab",
        "commentaire": "",
        "Internet": "",
        "Intranet": "",
        "phase": "inconnu"
    },
    {
        "id": "$78640ecoA",
        "projet": "Projet urbain Louvois",
        "commune": "Vélizy-Villacoublay",
        "long": "2.190408",
        "lat": "48.787899",
        "aap": "caap",
        "commentaire": "",
        "Internet": "",
        "Intranet": "",
        "phase": "inconnu"
    },
    {
        "id": "$91016ecoA",
        "projet": "Le Parc d&apos;Angerville",
        "commune": "Angerville",
        "long": "1.998318",
        "lat": "48.311206",
        "aap": "caap",
        "commentaire": "",
        "Internet": "",
        "Intranet": "",
        "phase": "inconnu"
    },
    {
        "id": "$91103ecoA",
        "projet": "Clause-Bois Badeau",
        "commune": "Brétigny sur Orge",
        "long": "2.30604",
        "lat": "48.611486",
        "aap": "elab",
        "commentaire": "",
        "Internet": "",
        "Intranet": "",
        "phase": "inconnu"
    },
    {
        "id": "$91182ecoA",
        "projet": "CANAL / EUROPE",
        "commune": "Courcouronnes",
        "long": "2.407091",
        "lat": "48.617871",
        "aap": "caap",
        "commentaire": "",
        "Internet": "",
        "Intranet": "",
        "phase": "inconnu"
    },
    {
        "id": "$91228ecoA",
        "projet": "Quartier du Bois Sauvage",
        "commune": "Evry",
        "long": "2.441782",
        "lat": "48.629828",
        "aap": "caap",
        "commentaire": "",
        "Internet": "",
        "Intranet": "",
        "phase": "inconnu"
    },
    {
        "id": "$91272ecoA",
        "projet": "ZAC du Moulon",
        "commune": "Gif sur Yvette -Orsay- Saint-Aubin",
        "long": "2.13675",
        "lat": "48.698145",
        "aap": "elab",
        "commentaire": "",
        "Internet": "",
        "Intranet": "",
        "phase": "inconnu"
    },
    {
        "id": "$91286ecoA",
        "projet": "Une ZAC exemplaire",
        "commune": "Grigny",
        "long": "2.385166",
        "lat": "48.656473",
        "aap": "caap",
        "commentaire": "",
        "Internet": "",
        "Intranet": "",
        "phase": "inconnu"
    },
    {
        "id": "$91338ecoA",
        "projet": "Projet &apos;Coeur de Ville&apos; - Limours",
        "commune": "Limours en Hurepoix",
        "long": "2.0821306",
        "lat": "48.6387737",
        "aap": "caap",
        "commentaire": "",
        "Internet": "",
        "Intranet": "",
        "phase": "inconnu"
    },
    {
        "id": "$91377ecoA",
        "projet": "Massy-Atlantis",
        "commune": "Massy",
        "long": "2.27137",
        "lat": "48.730756",
        "aap": "caap",
        "commentaire": "",
        "Internet": "",
        "Intranet": "",
        "phase": "inconnu"
    },
    {
        "id": "$91377ecoA",
        "projet": "Massy-Atlantis",
        "commune": "Massy",
        "long": "2.27137",
        "lat": "48.730756",
        "aap": "autres",
        "commentaire": "",
        "Internet": "",
        "Intranet": "",
        "phase": "inconnu"
    },
    {
        "id": "$91377ecoB",
        "projet": "Quartier Franciades Opera",
        "commune": "Massy",
        "long": "2.27137",
        "lat": "48.730756",
        "aap": "autres",
        "commentaire": "",
        "Internet": "",
        "Intranet": "",
        "phase": "inconnu"
    },
    {
        "id": "$91477ecoA",
        "projet": "ZAC du quartier de l’École Polytechnique",
        "commune": "Palaiseau",
        "long": "2.245748",
        "lat": "48.714509",
        "aap": "elab",
        "commentaire": "",
        "Internet": "",
        "Intranet": "",
        "phase": "inconnu"
    },
    {
        "id": "$91477ecoB",
        "projet": "Ecoquartier du lycée Camille Claudel",
        "commune": "Palaiseau",
        "long": "2.245748",
        "lat": "48.714509",
        "aap": "caap",
        "commentaire": "",
        "Internet": "",
        "Intranet": "",
        "phase": "inconnu"
    },
    {
        "id": "$91521ecoA",
        "projet": "Les docks de ris",
        "commune": "Ris-Orangis",
        "long": "2.410451",
        "lat": "48.645663",
        "aap": "elab",
        "commentaire": "",
        "Internet": "",
        "Intranet": "",
        "phase": "inconnu"
    },
    {
        "id": "$91573ecoA",
        "projet": "La Clé de Saint Pierre",
        "commune": "Saint Pierre du Perray",
        "long": "2.5193121",
        "lat": "48.606394",
        "aap": "clab",
        "commentaire": "",
        "Internet": "",
        "Intranet": "",
        "phase": "inconnu"
    },
    {
        "id": "$91657ecoA",
        "projet": "Zac de la Gare",
        "commune": "Vigneux-sur-Seine",
        "long": "2.416924",
        "lat": "48.700094",
        "aap": "caap",
        "commentaire": "",
        "Internet": "",
        "Intranet": "",
        "phase": "inconnu"
    },
    {
        "id": "$92007ecoA",
        "projet": "Ecoquartier Victor Hugo Bagneux",
        "commune": "Bagneux",
        "long": "2.31002",
        "lat": "48.796696",
        "aap": "caap",
        "commentaire": "",
        "Internet": "",
        "Intranet": "",
        "phase": "inconnu"
    },
    {
        "id": "$92009ecoA",
        "projet": "ZAC PLM Bois-Colombes",
        "commune": "Bois-Colombes",
        "long": "2.269675",
        "lat": "48.917402",
        "aap": "elab",
        "commentaire": "",
        "Internet": "",
        "Intranet": "",
        "phase": "inconnu"
    },
    {
        "id": "$92012ecoA",
        "projet": "Le Trapèze",
        "commune": "Boulogne-Billancourt",
        "long": "2.2399123",
        "lat": "48.8396952",
        "aap": "label",
        "commentaire": "Label 2013",
        "Internet": "",
        "Intranet": "",
        "phase": "inconnu"
    },
    {
        "id": "$92024ecoA",
        "projet": "ZAC du Bac d&apos;Asnières",
        "commune": "Clichy",
        "long": "2.304768",
        "lat": "48.904526",
        "aap": "elab",
        "commentaire": "",
        "Internet": "",
        "Intranet": "",
        "phase": "inconnu"
    },
    {
        "id": "$92036ecoA",
        "projet": "ZAC Chandon République",
        "commune": "Gennevilliers",
        "long": "2.293275",
        "lat": "48.925525",
        "aap": "caap",
        "commentaire": "",
        "Internet": "",
        "Intranet": "",
        "phase": "inconnu"
    },
    {
        "id": "$92040ecoA",
        "projet": "Bords de Seine",
        "commune": "Issy-les-Moulineaux",
        "long": "2.2743419",
        "lat": "48.8245306",
        "aap": "caap",
        "commentaire": "",
        "Internet": "",
        "Intranet": "",
        "phase": "inconnu"
    },
    {
        "id": "$92040ecoB",
        "projet": "Fort d&apos;Issy",
        "commune": "Issy-les-Moulineaux",
        "long": "2.2743419",
        "lat": "48.8245306",
        "aap": "clab",
        "commentaire": "",
        "Internet": "",
        "Intranet": "",
        "phase": "inconnu"
    },
    {
        "id": "$92044ecoA",
        "projet": "Collange",
        "commune": "Levallois Perret",
        "long": "2.287864",
        "lat": "48.893217",
        "aap": "autres",
        "commentaire": "",
        "Internet": "",
        "Intranet": "",
        "phase": "inconnu"
    },
    {
        "id": "$92044ecoB",
        "projet": "Eiffel",
        "commune": "Levallois Perret",
        "long": "2.287864",
        "lat": "48.893217",
        "aap": "clab",
        "commentaire": "",
        "Internet": "",
        "Intranet": "",
        "phase": "inconnu"
    },
    {
        "id": "$92046ecoA",
        "projet": "ZAC Dolet Brossolette",
        "commune": "Malakoff",
        "long": "2.2977599",
        "lat": "48.817275",
        "aap": "clab",
        "commentaire": "",
        "Internet": "",
        "Intranet": "",
        "phase": "inconnu"
    },
    {
        "id": "$92050ecoA",
        "projet": "Hoche  ",
        "commune": "Nanterre",
        "long": "2.215331",
        "lat": "48.892423",
        "aap": "label",
        "commentaire": "Label 2014",
        "Internet": "",
        "Intranet": "",
        "phase": "inconnu"
    },
    {
        "id": "$92062ecoA",
        "projet": "Eco-quartier des Bergères",
        "commune": "Puteaux",
        "long": "2.23964",
        "lat": "48.884748",
        "aap": "caap",
        "commentaire": "",
        "Internet": "",
        "Intranet": "",
        "phase": "inconnu"
    },
    {
        "id": "$92073ecoA",
        "projet": "Carnot Gambetta",
        "commune": "Suresnes",
        "long": "2.219033",
        "lat": "48.869798",
        "aap": "caap",
        "commentaire": "",
        "Internet": "",
        "Intranet": "",
        "phase": "inconnu"
    },
    {
        "id": "$93001ecoA",
        "projet": "le fort d&apos;Aubervilliers",
        "commune": "Aubervilliers",
        "long": "2.384049",
        "lat": "48.912259",
        "aap": "caap",
        "commentaire": "",
        "Internet": "",
        "Intranet": "",
        "phase": "inconnu"
    },
    {
        "id": "$93005ecoA",
        "projet": "Les chemins Mitry-Princet",
        "commune": "Aulnay-sous-Bois",
        "long": "2.4970711",
        "lat": "48.9412151",
        "aap": "caap",
        "commentaire": "",
        "Internet": "",
        "Intranet": "",
        "phase": "inconnu"
    },
    {
        "id": "$93006ecoA",
        "projet": "L&apos;axe Gallieni/La Noue",
        "commune": "Bagnolet",
        "long": "2.4234589",
        "lat": "48.870364",
        "aap": "caap",
        "commentaire": "",
        "Internet": "",
        "Intranet": "",
        "phase": "inconnu"
    },
    {
        "id": "$93007ecoA",
        "projet": "Eco quartier Eiffel-Molette",
        "commune": "Blanc Mesnil (Le)",
        "long": "2.46436",
        "lat": "48.941345",
        "aap": "caap",
        "commentaire": "",
        "Internet": "",
        "Intranet": "",
        "phase": "inconnu"
    },
    {
        "id": "$93007ecoB",
        "projet": "Les Tilleuls (PRU)",
        "commune": "Blanc Mesnil (Le)",
        "long": "2.46436",
        "lat": "48.941345",
        "aap": "autres",
        "commentaire": "",
        "Internet": "",
        "Intranet": "",
        "phase": "inconnu"
    },
    {
        "id": "$93008ecoA",
        "projet": "Ecocité - Canal de l&apos;Ourcq",
        "commune": "Bobigny",
        "long": "2.439712",
        "lat": "48.908612",
        "aap": "caap",
        "commentaire": "",
        "Internet": "",
        "Intranet": "",
        "phase": "inconnu"
    },
    {
        "id": "$93010ecoA",
        "projet": "écoquartier du Canal",
        "commune": "Bondy",
        "long": "2.481875",
        "lat": "48.906008",
        "aap": "caap",
        "commentaire": "",
        "Internet": "",
        "Intranet": "",
        "phase": "inconnu"
    },
    {
        "id": "$93027ecoA",
        "projet": "La Courneuve Centre Ville",
        "commune": "Courneuve (La)",
        "long": "2.3990819",
        "lat": "48.9320252",
        "aap": "caap",
        "commentaire": "",
        "Internet": "",
        "Intranet": "",
        "phase": "inconnu"
    },
    {
        "id": "$93039ecoA",
        "projet": "L&apos;écoquartier fluvial de l’Île-Saint-Denis",
        "commune": "Ile-Saint-Denis (L&apos;)",
        "long": "2.357443",
        "lat": "48.936181",
        "aap": "elab",
        "commentaire": "",
        "Internet": "",
        "Intranet": "",
        "phase": "inconnu"
    },
    {
        "id": "$93048ecoA",
        "projet": "Les Hauts de Montreuil",
        "commune": "Montreuil",
        "long": "2.448451",
        "lat": "48.863812",
        "aap": "caap",
        "commentaire": "",
        "Internet": "",
        "Intranet": "",
        "phase": "inconnu"
    },
    {
        "id": "$93050ecoA",
        "projet": "Reconversion des friches hospitalières de Maison-Blanche et de Ville-Evrard",
        "commune": "Neuilly-sur-Marne",
        "long": "48856898",
        "lat": "2528373",
        "aap": "clab",
        "commentaire": "",
        "Internet": "",
        "Intranet": "",
        "phase": "réalisé"
    },
    {
        "id": "$93053ecoA",
        "projet": "Plaine de l&apos;Ourcq : Quartier Durable",
        "commune": "Noisy-le-Sec",
        "long": "2.458625",
        "lat": "48.892489",
        "aap": "caap",
        "commentaire": "",
        "Internet": "",
        "Intranet": "",
        "phase": "inconnu"
    },
    {
        "id": "$93055ecoA",
        "projet": "Ecoquartier Gare de Pantin",
        "commune": "Pantin",
        "long": "2.40963",
        "lat": "48.894533",
        "aap": "caap",
        "commentaire": "",
        "Internet": "",
        "Intranet": "",
        "phase": "inconnu"
    },
    {
        "id": "$93059ecoA",
        "projet": "Quartier Vallès",
        "commune": "Pierrefitte-sur-Seine",
        "long": "2.364077",
        "lat": "48.967903",
        "aap": "caap",
        "commentaire": "",
        "Internet": "",
        "Intranet": "",
        "phase": "inconnu"
    },
    {
        "id": "$93059ecoB",
        "projet": "Les Tartres Sud",
        "commune": "Pierrefitte-sur-Seine / Saint-Denis / Stains (Communauté d&apos;Agglomération Plaine Commune)",
        "long": "2.6370411",
        "lat": "48.8499198",
        "aap": "caap",
        "commentaire": "",
        "Internet": "",
        "Intranet": "",
        "phase": "inconnu"
    },
    {
        "id": "$93061ecoA",
        "projet": "Ecoquartier GUITEL",
        "commune": "Pré Saint-Gervais (Le)",
        "long": "2.40557",
        "lat": "48.885063",
        "aap": "caap",
        "commentaire": "",
        "Internet": "",
        "Intranet": "",
        "phase": "inconnu"
    },
    {
        "id": "$93064ecoA",
        "projet": "Mare Huguet",
        "commune": "Rosny-sous-Bois",
        "long": "2.485932",
        "lat": "48.875661",
        "aap": "caap",
        "commentaire": "",
        "Internet": "",
        "Intranet": "",
        "phase": "inconnu"
    },
    {
        "id": "$93066ecoA",
        "projet": "Quartier Gare Confluence",
        "commune": "Saint-Denis",
        "long": "2.357443",
        "lat": "48.936181",
        "aap": "caap",
        "commentaire": "",
        "Internet": "",
        "Intranet": "",
        "phase": "inconnu"
    },
    {
        "id": "$93070ecoA",
        "projet": "ZAC des Docks de Saint Ouen",
        "commune": "Saint-Ouen",
        "long": "2.333764",
        "lat": "48.911856",
        "aap": "elab",
        "commentaire": "",
        "Internet": "",
        "Intranet": "",
        "phase": "inconnu"
    },
    {
        "id": "$93071ecoA",
        "projet": "RECONVERSION DE LA FRICHE WESTINGHOUSE",
        "commune": "Sevran",
        "long": "2.538716",
        "lat": "48.93897",
        "aap": "caap",
        "commentaire": "",
        "Internet": "",
        "Intranet": "",
        "phase": "inconnu"
    },
    {
        "id": "$94021ecoA",
        "projet": "Portes d&apos;Orly",
        "commune": "Chevilly-Larue",
        "long": "2.3581919",
        "lat": "48.7649765",
        "aap": "elab",
        "commentaire": "",
        "Internet": "",
        "Intranet": "",
        "phase": "inconnu"
    },
    {
        "id": "$94038ecoA",
        "projet": "ZAC Entrée de ville Paul Hochart",
        "commune": "Haÿ-les-Roses (L&apos;)",
        "long": "2.338084",
        "lat": "48.7789659",
        "aap": "caap",
        "commentaire": "",
        "Internet": "",
        "Intranet": "",
        "phase": "inconnu"
    },